[
  {
    "name": "Kimpton Hotel Eventi",
    "address": "851 6th Ave, New York, NY 10001, USA",
    "postal_code": "10001",
    "phone": "(212) 564-4567",
    "rating": 4.4,
    "review_count": 2224,
    "cuisine_type": "Restaurante",
    "business_hours": {
      "day_0": "Monday: Open 24 hours",
      "day_1": "Tuesday: Open 24 hours",
      "day_2": "Wednesday: Open 24 hours",
      "day_3": "Thursday: Open 24 hours",
      "day_4": "Friday: Open 24 hours",
      "day_5": "Saturday: Open 24 hours",
      "day_6": "Sunday: Open 24 hours"
    },
    "website": "https://www.hoteleventi.com/?&cm_mmc=WEB-_-KI-_-AMER-_-EN-_-EV-_-Google%20Business%20Profile-_-DD-_-eventi",
    "latitude": 40.7470222,
    "longitude": -73.9900333,
    "scraped_at": "2025-06-25T14:23:39.326838"
  },
  {
    "name": "Park Lane Hotel New York",
    "address": "36 Central Park S South, New York, NY 10019, USA",
    "postal_code": "10001",
    "phone": "(212) 371-4000",
    "rating": 4,
    "review_count": 3097,
    "cuisine_type": "Restaurante",
    "business_hours": null,
    "website": "https://www.parklanenewyork.com/?utm_source=google&utm_medium=organic&utm_campaign=gbp_listing",
    "latitude": 40.7650735,
    "longitude": -73.9752633,
    "scraped_at": "2025-06-25T14:23:39.706695"
  },
  {
    "name": "Hotel Belleclaire",
    "address": "2175 Broadway, New York, NY 10024, USA",
    "postal_code": "10001",
    "phone": "(212) 362-7700",
    "rating": 4,
    "review_count": 1658,
    "cuisine_type": "Restaurante",
    "business_hours": {
      "day_0": "Monday: Open 24 hours",
      "day_1": "Tuesday: Open 24 hours",
      "day_2": "Wednesday: Open 24 hours",
      "day_3": "Thursday: Open 24 hours",
      "day_4": "Friday: Open 24 hours",
      "day_5": "Saturday: Open 24 hours",
      "day_6": "Sunday: Open 24 hours"
    },
    "website": "https://www.hotelbelleclaire.com/?utm_source=google&utm_medium=organic&utm_campaign=gbp_listing",
    "latitude": 40.782425,
    "longitude": -73.9811603,
    "scraped_at": "2025-06-25T14:23:40.238874"
  },
  {
    "name": "The Mark Hotel",
    "address": "25 E 77th St, New York, NY 10075, USA",
    "postal_code": "10001",
    "phone": "(212) 744-4300",
    "rating": 4.5,
    "review_count": 872,
    "cuisine_type": "Restaurante",
    "business_hours": {
      "day_0": "Monday: Open 24 hours",
      "day_1": "Tuesday: Open 24 hours",
      "day_2": "Wednesday: Open 24 hours",
      "day_3": "Thursday: Open 24 hours",
      "day_4": "Friday: Open 24 hours",
      "day_5": "Saturday: Open 24 hours",
      "day_6": "Sunday: Open 24 hours"
    },
    "website": "https://www.themarkhotel.com/?utm_source=gmb&utm_medium=organic",
    "latitude": 40.7752711,
    "longitude": -73.9633994,
    "scraped_at": "2025-06-25T14:23:40.544017"
  },
  {
    "name": "The Frederick Hotel",
    "address": "95 W Broadway, New York, NY 10007, USA",
    "postal_code": "10001",
    "phone": "(212) 566-1900",
    "rating": 4.2,
    "review_count": 971,
    "cuisine_type": "Restaurante",
    "business_hours": {
      "day_0": "Monday: Open 24 hours",
      "day_1": "Tuesday: Open 24 hours",
      "day_2": "Wednesday: Open 24 hours",
      "day_3": "Thursday: Open 24 hours",
      "day_4": "Friday: Open 24 hours",
      "day_5": "Saturday: Open 24 hours",
      "day_6": "Sunday: Open 24 hours"
    },
    "website": "https://www.frederickhotelnyc.com/?utm_source=google&utm_medium=organic&utm_campaign=gbp_listing",
    "latitude": 40.7156143,
    "longitude": -74.00896709999999,
    "scraped_at": "2025-06-25T14:23:41.059888"
  },
  {
    "name": "Connolly's",
    "address": "121 W 45th St, New York, NY 10036, USA",
    "postal_code": "10001",
    "phone": "(212) 597-5126",
    "rating": 4.4,
    "review_count": 4736,
    "cuisine_type": "Restaurante",
    "business_hours": {
      "day_0": "Monday: 7:00 AM – 4:00 AM",
      "day_1": "Tuesday: 7:00 AM – 4:00 AM",
      "day_2": "Wednesday: 7:00 AM – 4:00 AM",
      "day_3": "Thursday: 7:00 AM – 4:00 AM",
      "day_4": "Friday: 7:00 AM – 4:00 AM",
      "day_5": "Saturday: 7:00 AM – 4:00 AM",
      "day_6": "Sunday: 8:00 AM – 4:00 AM"
    },
    "website": "https://www.connollyspubandrestaurant.com/",
    "latitude": 40.7573681,
    "longitude": -73.9835798,
    "scraped_at": "2025-06-25T14:23:41.457951"
  },
  {
    "name": "Artichoke Basille's Pizza",
    "address": "111 MacDougal St, New York, NY 10012, USA",
    "postal_code": "10001",
    "phone": "(646) 609-1011",
    "rating": 4.4,
    "review_count": 1952,
    "cuisine_type": "Restaurante",
    "business_hours": {
      "day_0": "Monday: 11:00 AM – 4:00 AM",
      "day_1": "Tuesday: 11:00 AM – 4:00 AM",
      "day_2": "Wednesday: 11:00 AM – 4:00 AM",
      "day_3": "Thursday: 11:00 AM – 4:00 AM",
      "day_4": "Friday: 11:00 AM – 4:00 AM",
      "day_5": "Saturday: 11:00 AM – 4:00 AM",
      "day_6": "Sunday: 11:00 AM – 4:00 AM"
    },
    "website": "https://www.artichokepizza.com/",
    "latitude": 40.73,
    "longitude": -74.00072779999999,
    "scraped_at": "2025-06-25T14:23:41.753012"
  },
  {
    "name": "Chart House",
    "address": "1700 Harbor Blvd, Weehawken Township, NJ 07086, USA",
    "postal_code": "10001",
    "phone": "(201) 348-6628",
    "rating": 4.5,
    "review_count": 7940,
    "cuisine_type": "Restaurante",
    "business_hours": {
      "day_0": "Monday: 4:30 – 10:00 PM",
      "day_1": "Tuesday: 4:30 – 10:00 PM",
      "day_2": "Wednesday: 4:30 – 10:00 PM",
      "day_3": "Thursday: 4:30 – 10:00 PM",
      "day_4": "Friday: 4:30 – 10:30 PM",
      "day_5": "Saturday: 11:30 AM – 10:30 PM",
      "day_6": "Sunday: 11:30 AM – 10:00 PM"
    },
    "website": "https://www.chart-house.com/location/chart-house-weehawken-nj/",
    "latitude": 40.7607,
    "longitude": -74.01803509999999,
    "scraped_at": "2025-06-25T14:23:42.130369"
  },
  {
    "name": "Magnolia Bakery",
    "address": "401 Bleecker St, New York, NY 10014, USA",
    "postal_code": "10001",
    "phone": "(212) 462-2572",
    "rating": 4.3,
    "review_count": 4691,
    "cuisine_type": "Restaurante",
    "business_hours": {
      "day_0": "Monday: 9:30 AM – 10:00 PM",
      "day_1": "Tuesday: 9:30 AM – 10:00 PM",
      "day_2": "Wednesday: 9:30 AM – 10:00 PM",
      "day_3": "Thursday: 9:30 AM – 10:00 PM",
      "day_4": "Friday: 9:30 AM – 11:00 PM",
      "day_5": "Saturday: 9:30 AM – 11:00 PM",
      "day_6": "Sunday: 9:30 AM – 10:00 PM"
    },
    "website": "http://www.magnoliabakery.com/",
    "latitude": 40.73589459999999,
    "longitude": -74.00491000000001,
    "scraped_at": "2025-06-25T14:23:42.369194"
  },
  {
    "name": "Oohu Szechuan & Canton Cuisines",
    "address": "128 W 36th St., New York, NY 10018, USA",
    "postal_code": "10001",
    "phone": "(212) 575-8899",
    "rating": 4.5,
    "review_count": 1322,
    "cuisine_type": "Restaurante",
    "business_hours": {
      "day_0": "Monday: 11:00 AM – 10:00 PM",
      "day_1": "Tuesday: 11:00 AM – 10:00 PM",
      "day_2": "Wednesday: 11:00 AM – 10:00 PM",
      "day_3": "Thursday: 11:00 AM – 10:00 PM",
      "day_4": "Friday: 11:00 AM – 10:30 PM",
      "day_5": "Saturday: 11:30 AM – 10:30 PM",
      "day_6": "Sunday: 11:30 AM – 10:00 PM"
    },
    "website": "https://www.oohunyc.com/",
    "latitude": 40.7514762,
    "longitude": -73.9883517,
    "scraped_at": "2025-06-25T14:23:42.970745"
  },
  {
    "name": "TAO Uptown",
    "address": "42 E 58th St, New York, NY 10022, USA",
    "postal_code": "10001",
    "phone": "(212) 888-2288",
    "rating": 4.2,
    "review_count": 4159,
    "cuisine_type": "Restaurante",
    "business_hours": {
      "day_0": "Monday: 11:30 AM – 10:00 PM",
      "day_1": "Tuesday: 11:30 AM – 10:00 PM",
      "day_2": "Wednesday: 11:30 AM – 10:00 PM",
      "day_3": "Thursday: 11:30 AM – 11:00 PM",
      "day_4": "Friday: 11:30 AM – 12:00 AM",
      "day_5": "Saturday: 4:00 PM – 12:00 AM",
      "day_6": "Sunday: 4:00 – 10:00 PM"
    },
    "website": "https://taorestaurant.com/",
    "latitude": 40.7626593,
    "longitude": -73.9714411,
    "scraped_at": "2025-06-25T14:23:43.232427"
  },
  {
    "name": "Carmine's - Time Square",
    "address": "200 W 44th St, New York, NY 10036, USA",
    "postal_code": "10001",
    "phone": "(212) 221-3800",
    "rating": 4.5,
    "review_count": 17606,
    "cuisine_type": "Restaurante",
    "business_hours": {
      "day_0": "Monday: 11:30 AM – 11:00 PM",
      "day_1": "Tuesday: 11:30 AM – 11:00 PM",
      "day_2": "Wednesday: 11:00 AM – 11:00 PM",
      "day_3": "Thursday: 11:30 AM – 12:00 AM",
      "day_4": "Friday: 11:30 AM – 12:00 AM",
      "day_5": "Saturday: 11:30 AM – 12:00 AM",
      "day_6": "Sunday: 11:30 AM – 11:00 PM"
    },
    "website": "https://www.carminesnyc.com/?olonwp=JjBtp_vMLk25gkYh_bnoiQ",
    "latitude": 40.757498,
    "longitude": -73.986654,
    "scraped_at": "2025-06-25T14:23:43.851068"
  },
  {
    "name": "Bryant Park Grill",
    "address": "25 W 40th St, New York, NY 10018, USA",
    "postal_code": "10001",
    "phone": "(212) 840-6500",
    "rating": 4.3,
    "review_count": 3053,
    "cuisine_type": "Restaurante",
    "business_hours": {
      "day_0": "Monday: 11:30 AM – 10:00 PM",
      "day_1": "Tuesday: 11:30 AM – 10:00 PM",
      "day_2": "Wednesday: 11:30 AM – 10:00 PM",
      "day_3": "Thursday: 11:30 AM – 10:00 PM",
      "day_4": "Friday: 11:30 AM – 10:00 PM",
      "day_5": "Saturday: 11:30 AM – 10:00 PM",
      "day_6": "Sunday: 11:30 AM – 10:00 PM"
    },
    "website": "https://bryantparkgrillnyc.com/",
    "latitude": 40.7531999,
    "longitude": -73.982957,
    "scraped_at": "2025-06-25T14:23:44.086144"
  },
  {
    "name": "YOTEL New York Times Square",
    "address": "570 Tenth Avenue At, W 42nd St, New York, NY 10036, USA",
    "postal_code": "10001",
    "phone": "(646) 449-7700",
    "rating": 3.9,
    "review_count": 8904,
    "cuisine_type": "Restaurante",
    "business_hours": null,
    "website": "https://www.yotel.com/en/hotels/yotel-new-york?utm_source=Google&utm_medium=Yext_YONYC",
    "latitude": 40.7591608,
    "longitude": -73.9954657,
    "scraped_at": "2025-06-25T14:23:44.439022"
  },
  {
    "name": "Grand Central Oyster Bar",
    "address": "89 E 42nd St, New York, NY 10017, USA",
    "postal_code": "10001",
    "phone": "(212) 490-6650",
    "rating": 4.2,
    "review_count": 4341,
    "cuisine_type": "Restaurante",
    "business_hours": {
      "day_0": "Monday: 11:30 AM – 9:30 PM",
      "day_1": "Tuesday: 11:30 AM – 9:30 PM",
      "day_2": "Wednesday: 11:30 AM – 9:30 PM",
      "day_3": "Thursday: 11:30 AM – 9:30 PM",
      "day_4": "Friday: 11:30 AM – 9:30 PM",
      "day_5": "Saturday: Closed",
      "day_6": "Sunday: Closed"
    },
    "website": "http://www.oysterbarny.com/",
    "latitude": 40.7524823,
    "longitude": -73.97743109999999,
    "scraped_at": "2025-06-25T14:23:45.021674"
  },
  {
    "name": "Shake Shack Madison Square Park",
    "address": "23rd Street and, Madison Square Park, Madison Ave, New York, NY 10010, USA",
    "postal_code": "10001",
    "phone": "(212) 889-6600",
    "rating": 4.5,
    "review_count": 7361,
    "cuisine_type": "Restaurante",
    "business_hours": {
      "day_0": "Monday: 10:30 AM – 11:30 PM",
      "day_1": "Tuesday: 10:30 AM – 11:30 PM",
      "day_2": "Wednesday: 10:30 AM – 11:30 PM",
      "day_3": "Thursday: 10:30 AM – 11:30 PM",
      "day_4": "Friday: 10:30 AM – 11:30 PM",
      "day_5": "Saturday: 10:30 AM – 11:30 PM",
      "day_6": "Sunday: 10:30 AM – 11:30 PM"
    },
    "website": "https://www.shakeshack.com/location/madison-square-park-ny?utm_source=google&utm_medium=listing",
    "latitude": 40.741518,
    "longitude": -73.9881734,
    "scraped_at": "2025-06-25T14:23:45.412831"
  },
  {
    "name": "Blue Fin",
    "address": "1567 Broadway, New York, NY 10036, USA",
    "postal_code": "10001",
    "phone": "(212) 918-1400",
    "rating": 4.2,
    "review_count": 1102,
    "cuisine_type": "Restaurante",
    "business_hours": {
      "day_0": "Monday: 4:00 – 9:00 PM",
      "day_1": "Tuesday: 4:00 – 9:00 PM",
      "day_2": "Wednesday: 4:00 – 9:00 PM",
      "day_3": "Thursday: 4:00 – 9:00 PM",
      "day_4": "Friday: 4:00 – 11:00 PM",
      "day_5": "Saturday: 4:00 – 11:00 PM",
      "day_6": "Sunday: 4:00 – 9:00 PM"
    },
    "website": "https://www.bluefinnyc.com/location/blue-fin/",
    "latitude": 40.75937589999999,
    "longitude": -73.98532519999999,
    "scraped_at": "2025-06-25T14:23:45.657318"
  },
  {
    "name": "The Dutch",
    "address": "131 Sullivan St, New York, NY 10012, USA",
    "postal_code": "10001",
    "phone": "(212) 677-6200",
    "rating": 4.3,
    "review_count": 2292,
    "cuisine_type": "Restaurante",
    "business_hours": {
      "day_0": "Monday: 12:00 – 10:00 PM",
      "day_1": "Tuesday: 12:00 – 10:00 PM",
      "day_2": "Wednesday: 12:00 – 10:00 PM",
      "day_3": "Thursday: 12:00 – 10:00 PM",
      "day_4": "Friday: 12:00 – 11:00 PM",
      "day_5": "Saturday: 10:00 AM – 11:00 PM",
      "day_6": "Sunday: 10:00 AM – 3:00 PM, 5:00 – 9:00 PM"
    },
    "website": "http://www.thedutchnyc.com/",
    "latitude": 40.7265328,
    "longitude": -74.0021536,
    "scraped_at": "2025-06-25T14:23:46.020826"
  },
  {
    "name": "Blue Note",
    "address": "131 W 3rd St, New York, NY 10012, USA",
    "postal_code": "10001",
    "phone": "(212) 475-8592",
    "rating": 4.2,
    "review_count": 5170,
    "cuisine_type": "Restaurante",
    "business_hours": {
      "day_0": "Monday: 6:00 PM – 12:00 AM",
      "day_1": "Tuesday: 6:00 PM – 12:00 AM",
      "day_2": "Wednesday: 6:00 PM – 12:00 AM",
      "day_3": "Thursday: 6:00 PM – 12:00 AM",
      "day_4": "Friday: 6:00 PM – 12:00 AM",
      "day_5": "Saturday: 6:00 PM – 12:00 AM",
      "day_6": "Sunday: 11:00 AM – 12:00 AM"
    },
    "website": "https://www.bluenotejazz.com/nyc/",
    "latitude": 40.7309083,
    "longitude": -74.0006557,
    "scraped_at": "2025-06-25T14:23:46.569467"
  },
  {
    "name": "Shake Shack Theater District",
    "address": "691 8th Ave, New York, NY 10036, USA",
    "postal_code": "10001",
    "phone": "(646) 435-0135",
    "rating": 4.4,
    "review_count": 14479,
    "cuisine_type": "Restaurante",
    "business_hours": {
      "day_0": "Monday: 10:30 AM – 1:00 AM",
      "day_1": "Tuesday: 10:30 AM – 1:00 AM",
      "day_2": "Wednesday: 10:30 AM – 1:00 AM",
      "day_3": "Thursday: 10:30 AM – 1:00 AM",
      "day_4": "Friday: 10:30 AM – 1:00 AM",
      "day_5": "Saturday: 10:30 AM – 1:00 AM",
      "day_6": "Sunday: 10:30 AM – 1:00 AM"
    },
    "website": "https://www.shakeshack.com/location/theater-district-ny?utm_source=google&utm_medium=listing",
    "latitude": 40.7584105,
    "longitude": -73.98921899999999,
    "scraped_at": "2025-06-25T14:23:46.910484"
  },
  {
    "name": "Max Brenner New York",
    "address": "841 Broadway, New York, NY 10003, USA",
    "postal_code": "10001",
    "phone": "(646) 467-8803",
    "rating": 4.3,
    "review_count": 6512,
    "cuisine_type": "Restaurante",
    "business_hours": {
      "day_0": "Monday: 9:00 AM – 1:00 AM",
      "day_1": "Tuesday: 9:00 AM – 1:00 AM",
      "day_2": "Wednesday: 9:00 AM – 1:00 AM",
      "day_3": "Thursday: 9:00 AM – 1:00 AM",
      "day_4": "Friday: 9:00 AM – 2:00 AM",
      "day_5": "Saturday: 9:00 AM – 2:00 AM",
      "day_6": "Sunday: 9:00 AM – 12:00 AM"
    },
    "website": "http://maxbrenner.com/",
    "latitude": 40.7343227,
    "longitude": -73.991186,
    "scraped_at": "2025-06-25T14:23:49.713874"
  },
  {
    "name": "Ellen's Stardust Diner",
    "address": "1650 Broadway, New York, NY 10019, USA",
    "postal_code": "10001",
    "phone": "(212) 956-5151",
    "rating": 4.4,
    "review_count": 21808,
    "cuisine_type": "Restaurante",
    "business_hours": {
      "day_0": "Monday: 7:00 AM – 12:00 AM",
      "day_1": "Tuesday: 7:00 AM – 12:00 AM",
      "day_2": "Wednesday: 7:00 AM – 12:00 AM",
      "day_3": "Thursday: 7:00 AM – 12:00 AM",
      "day_4": "Friday: 7:00 AM – 12:00 AM",
      "day_5": "Saturday: 7:00 AM – 12:00 AM",
      "day_6": "Sunday: 7:00 AM – 12:00 AM"
    },
    "website": "https://www.ellensstardustdiner.com/",
    "latitude": 40.7618723,
    "longitude": -73.98343559999999,
    "scraped_at": "2025-06-25T14:23:50.041132"
  },
  {
    "name": "Momofuku Noodle Bar",
    "address": "171 1st Ave, New York, NY 10003, USA",
    "postal_code": "10001",
    "phone": "(212) 777-7773",
    "rating": 4.5,
    "review_count": 5139,
    "cuisine_type": "Restaurante",
    "business_hours": {
      "day_0": "Monday: 5:00 – 10:00 PM",
      "day_1": "Tuesday: 5:00 – 10:00 PM",
      "day_2": "Wednesday: 5:00 – 10:00 PM",
      "day_3": "Thursday: 5:00 – 10:00 PM",
      "day_4": "Friday: 12:00 – 4:00 PM, 5:00 – 11:00 PM",
      "day_5": "Saturday: 11:00 AM – 4:00 PM, 5:00 – 11:00 PM",
      "day_6": "Sunday: 11:00 AM – 4:00 PM, 5:00 – 10:00 PM"
    },
    "website": "https://momofukunoodlebar.com/",
    "latitude": 40.7292083,
    "longitude": -73.98441500000001,
    "scraped_at": "2025-06-25T14:23:50.451946"
  },
  {
    "name": "Gilligan's",
    "address": "310 W Broadway, New York, NY 10013, USA",
    "postal_code": "10001",
    "phone": "(212) 965-3271",
    "rating": 4.1,
    "review_count": 375,
    "cuisine_type": "Restaurante",
    "business_hours": {
      "day_0": "Monday: 3:00 – 10:00 PM",
      "day_1": "Tuesday: 3:00 – 10:00 PM",
      "day_2": "Wednesday: 3:00 – 10:00 PM",
      "day_3": "Thursday: 3:00 – 10:00 PM",
      "day_4": "Friday: 3:00 – 11:00 PM",
      "day_5": "Saturday: 2:00 – 11:00 PM",
      "day_6": "Sunday: 2:00 – 10:00 PM"
    },
    "website": "http://www.gilligansnyc.com/",
    "latitude": 40.7221457,
    "longitude": -74.0046268,
    "scraped_at": "2025-06-25T14:23:50.950803"
  },
  {
    "name": "Del Frisco's Double Eagle Steakhouse",
    "address": "1221 Ave of the Americas, New York, NY 10020, USA",
    "postal_code": "10001",
    "phone": "(212) 575-5129",
    "rating": 4.5,
    "review_count": 5513,
    "cuisine_type": "Restaurante",
    "business_hours": {
      "day_0": "Monday: 11:00 AM – 10:00 PM",
      "day_1": "Tuesday: 11:00 AM – 11:00 PM",
      "day_2": "Wednesday: 11:00 AM – 11:00 PM",
      "day_3": "Thursday: 11:00 AM – 11:00 PM",
      "day_4": "Friday: 11:00 AM – 11:00 PM",
      "day_5": "Saturday: 4:00 – 11:00 PM",
      "day_6": "Sunday: 4:00 – 10:00 PM"
    },
    "website": "https://www.delfriscos.com/location/del-friscos-double-eagle-steakhouse-new-york-ny/",
    "latitude": 40.7594099,
    "longitude": -73.98222,
    "scraped_at": "2025-06-25T14:23:51.486460"
  },
  {
    "name": "Pianos",
    "address": "158 Ludlow St, New York, NY 10002, USA",
    "postal_code": "10001",
    "phone": "(212) 505-3733",
    "rating": 3.9,
    "review_count": 2326,
    "cuisine_type": "Restaurante",
    "business_hours": {
      "day_0": "Monday: Closed",
      "day_1": "Tuesday: 6:00 PM – 4:00 AM",
      "day_2": "Wednesday: 6:00 PM – 4:00 AM",
      "day_3": "Thursday: 6:00 PM – 4:00 AM",
      "day_4": "Friday: 4:00 PM – 4:00 AM",
      "day_5": "Saturday: 4:00 PM – 4:00 AM",
      "day_6": "Sunday: 4:00 PM – 4:00 AM"
    },
    "website": "http://pianosnyc.com/",
    "latitude": 40.7210476,
    "longitude": -73.98772830000001,
    "scraped_at": "2025-06-25T14:23:52.093363"
  },
  {
    "name": "Keens Steakhouse",
    "address": "72 W 36th St., New York, NY 10018, USA",
    "postal_code": "10001",
    "phone": "(212) 947-3636",
    "rating": 4.6,
    "review_count": 8935,
    "cuisine_type": "Restaurante",
    "business_hours": {
      "day_0": "Monday: 11:45 AM – 10:30 PM",
      "day_1": "Tuesday: 11:45 AM – 10:30 PM",
      "day_2": "Wednesday: 11:45 AM – 10:30 PM",
      "day_3": "Thursday: 11:45 AM – 10:30 PM",
      "day_4": "Friday: 11:45 AM – 10:30 PM",
      "day_5": "Saturday: 5:00 – 10:30 PM",
      "day_6": "Sunday: 5:00 – 9:30 PM"
    },
    "website": "http://www.keens.com/",
    "latitude": 40.7507861,
    "longitude": -73.9864611,
    "scraped_at": "2025-06-25T14:23:52.634933"
  },
  {
    "name": "Morton's The Steakhouse",
    "address": "551 5th Ave, New York, NY 10017, USA",
    "postal_code": "10001",
    "phone": "(212) 972-3315",
    "rating": 4.5,
    "review_count": 1907,
    "cuisine_type": "Restaurante",
    "business_hours": {
      "day_0": "Monday: 12:00 – 9:00 PM",
      "day_1": "Tuesday: 12:00 – 10:00 PM",
      "day_2": "Wednesday: 12:00 – 10:00 PM",
      "day_3": "Thursday: 12:00 – 10:00 PM",
      "day_4": "Friday: 12:00 – 10:00 PM",
      "day_5": "Saturday: 4:00 – 10:00 PM",
      "day_6": "Sunday: 4:00 – 9:00 PM"
    },
    "website": "https://www.mortons.com/location/mortons-the-steakhouse-new-york-ny-manhattan/",
    "latitude": 40.7557214,
    "longitude": -73.97918899999999,
    "scraped_at": "2025-06-25T14:23:53.174441"
  },
  {
    "name": "Dos Caminos",
    "address": "675 Hudson St, New York, NY 10014, USA",
    "postal_code": "10001",
    "phone": "(212) 699-2400",
    "rating": 4,
    "review_count": 2579,
    "cuisine_type": "Restaurante",
    "business_hours": {
      "day_0": "Monday: 11:30 AM – 9:00 PM",
      "day_1": "Tuesday: 11:30 AM – 9:00 PM",
      "day_2": "Wednesday: 11:30 AM – 9:00 PM",
      "day_3": "Thursday: 11:30 AM – 10:00 PM",
      "day_4": "Friday: 11:30 AM – 11:00 PM",
      "day_5": "Saturday: 11:30 AM – 11:00 PM",
      "day_6": "Sunday: 11:30 AM – 9:00 PM"
    },
    "website": "https://www.doscaminos.com/location/dos-caminos-meatpacking/",
    "latitude": 40.7404331,
    "longitude": -74.0054753,
    "scraped_at": "2025-06-25T14:23:53.613837"
  },
  {
    "name": "Balthazar",
    "address": "80 Spring St, New York, NY 10012, USA",
    "postal_code": "10001",
    "phone": "(212) 965-1414",
    "rating": 4.4,
    "review_count": 7023,
    "cuisine_type": "Restaurante",
    "business_hours": {
      "day_0": "Monday: 8:00 AM – 12:00 AM",
      "day_1": "Tuesday: 8:00 AM – 12:00 AM",
      "day_2": "Wednesday: 8:00 AM – 12:00 AM",
      "day_3": "Thursday: 8:00 AM – 12:00 AM",
      "day_4": "Friday: 8:00 AM – 12:00 AM",
      "day_5": "Saturday: 9:00 AM – 12:00 AM",
      "day_6": "Sunday: 9:00 AM – 12:00 AM"
    },
    "website": "http://www.balthazarny.com/",
    "latitude": 40.722668,
    "longitude": -73.99822979999999,
    "scraped_at": "2025-06-25T14:23:53.912938"
  },
  {
    "name": "Pershing Square",
    "address": "90 E 42nd St, New York, NY 10017, USA",
    "postal_code": "10001",
    "phone": "(212) 286-9600",
    "rating": 4.2,
    "review_count": 4581,
    "cuisine_type": "Restaurante",
    "business_hours": {
      "day_0": "Monday: 8:00 AM – 10:00 PM",
      "day_1": "Tuesday: 8:00 AM – 10:00 PM",
      "day_2": "Wednesday: 8:00 AM – 10:00 PM",
      "day_3": "Thursday: 8:00 AM – 10:00 PM",
      "day_4": "Friday: 8:00 AM – 10:00 PM",
      "day_5": "Saturday: 8:00 AM – 9:00 PM",
      "day_6": "Sunday: 8:00 AM – 9:00 PM"
    },
    "website": "https://pershingsquare.com/",
    "latitude": 40.7520244,
    "longitude": -73.97782579999999,
    "scraped_at": "2025-06-25T14:23:54.442055"
  },
  {
    "name": "Lombardi's",
    "address": "32 Spring St, New York, NY 10012, USA",
    "postal_code": "10001",
    "phone": "(212) 941-7994",
    "rating": 4.1,
    "review_count": 8645,
    "cuisine_type": "Restaurante",
    "business_hours": {
      "day_0": "Monday: 12:00 – 10:00 PM",
      "day_1": "Tuesday: 12:00 – 10:00 PM",
      "day_2": "Wednesday: 12:00 – 10:00 PM",
      "day_3": "Thursday: 12:00 – 10:00 PM",
      "day_4": "Friday: 12:00 – 11:45 PM",
      "day_5": "Saturday: 12:00 – 11:45 PM",
      "day_6": "Sunday: 12:00 – 10:00 PM"
    },
    "website": "http://www.firstpizza.com/",
    "latitude": 40.72157,
    "longitude": -73.9956368,
    "scraped_at": "2025-06-25T14:23:54.682965"
  },
  {
    "name": "Babbo",
    "address": "110 Waverly Pl, New York, NY 10011, USA",
    "postal_code": "10001",
    "phone": "(212) 777-0303",
    "rating": 4.3,
    "review_count": 1714,
    "cuisine_type": "Restaurante",
    "business_hours": null,
    "website": "http://www.babbonyc.com/",
    "latitude": 40.732296,
    "longitude": -73.9992785,
    "scraped_at": "2025-06-25T14:23:55.151951"
  },
  {
    "name": "STK Steakhouse",
    "address": "26 Little W 12th St, New York, NY 10014, USA",
    "postal_code": "10001",
    "phone": "(646) 624-2444",
    "rating": 4.8,
    "review_count": 17290,
    "cuisine_type": "Restaurante",
    "business_hours": {
      "day_0": "Monday: 2:30 PM – 12:00 AM",
      "day_1": "Tuesday: 2:30 PM – 12:00 AM",
      "day_2": "Wednesday: 2:30 PM – 12:00 AM",
      "day_3": "Thursday: 2:30 PM – 12:00 AM",
      "day_4": "Friday: 2:30 PM – 12:00 AM",
      "day_5": "Saturday: 10:00 AM – 12:00 AM",
      "day_6": "Sunday: 10:00 AM – 11:00 PM"
    },
    "website": "https://stksteakhouse.com/venues/nyc-downtown/",
    "latitude": 40.739794,
    "longitude": -74.00727499999999,
    "scraped_at": "2025-06-25T14:23:55.696447"
  },
  {
    "name": "Per Se",
    "address": "10 Columbus Cir, New York, NY 10019, USA",
    "postal_code": "10001",
    "phone": "(212) 823-9335",
    "rating": 4.5,
    "review_count": 1901,
    "cuisine_type": "Restaurante",
    "business_hours": {
      "day_0": "Monday: 4:30 – 8:30 PM",
      "day_1": "Tuesday: 4:30 – 8:30 PM",
      "day_2": "Wednesday: 4:30 – 8:30 PM",
      "day_3": "Thursday: 4:30 – 8:30 PM",
      "day_4": "Friday: 4:30 – 8:30 PM",
      "day_5": "Saturday: 4:30 – 8:30 PM",
      "day_6": "Sunday: 4:30 – 8:30 PM"
    },
    "website": "https://www.thomaskeller.com/perseny",
    "latitude": 40.7682178,
    "longitude": -73.9828988,
    "scraped_at": "2025-06-25T14:23:56.104273"
  },
  {
    "name": "burger joint",
    "address": "119 W 56th St, New York, NY 10019, USA",
    "postal_code": "10001",
    "phone": "(212) 708-7414",
    "rating": 4.3,
    "review_count": 8589,
    "cuisine_type": "Restaurante",
    "business_hours": {
      "day_0": "Monday: 11:00 AM – 11:00 PM",
      "day_1": "Tuesday: 11:00 AM – 11:00 PM",
      "day_2": "Wednesday: 11:00 AM – 11:00 PM",
      "day_3": "Thursday: 11:00 AM – 11:00 PM",
      "day_4": "Friday: 11:00 AM – 11:00 PM",
      "day_5": "Saturday: 11:00 AM – 11:00 PM",
      "day_6": "Sunday: 11:00 AM – 11:00 PM"
    },
    "website": "https://www.burgerjointny.com/",
    "latitude": 40.764215,
    "longitude": -73.97855969999999,
    "scraped_at": "2025-06-25T14:23:56.422959"
  },
  {
    "name": "Daniel",
    "address": "60 E 65th St, New York, NY 10065, USA",
    "postal_code": "10001",
    "phone": "(212) 288-0033",
    "rating": 4.6,
    "review_count": 2311,
    "cuisine_type": "Restaurante",
    "business_hours": {
      "day_0": "Monday: Closed",
      "day_1": "Tuesday: 5:00 – 9:30 PM",
      "day_2": "Wednesday: 5:00 – 9:30 PM",
      "day_3": "Thursday: 5:00 – 9:30 PM",
      "day_4": "Friday: 5:00 – 9:30 PM",
      "day_5": "Saturday: 5:00 – 9:30 PM",
      "day_6": "Sunday: 5:00 – 9:30 PM"
    },
    "website": "http://www.danielnyc.com/",
    "latitude": 40.7668083,
    "longitude": -73.9675769,
    "scraped_at": "2025-06-25T14:23:56.954167"
  },
  {
    "name": "Ruth's Chris Steak House",
    "address": "1000 Harbor Blvd, Weehawken Township, NJ 07086, USA",
    "postal_code": "10001",
    "phone": "(201) 863-5100",
    "rating": 4.5,
    "review_count": 1570,
    "cuisine_type": "Restaurante",
    "business_hours": {
      "day_0": "Monday: 4:00 – 10:00 PM",
      "day_1": "Tuesday: 4:00 – 10:00 PM",
      "day_2": "Wednesday: 4:00 – 10:00 PM",
      "day_3": "Thursday: 4:00 – 10:00 PM",
      "day_4": "Friday: 4:00 – 10:30 PM",
      "day_5": "Saturday: 4:00 – 10:30 PM",
      "day_6": "Sunday: 4:00 – 9:00 PM"
    },
    "website": "https://www.ruthschris.com/locations/nj/weehawken/weehawken/7306?cmpid=br:rc_ag:ie_ch:loc_ca:RCGMB_sn:gmb_gt:weehawken-nj-7306_pl:locurl_rd:1018",
    "latitude": 40.75942089999999,
    "longitude": -74.02288759999999,
    "scraped_at": "2025-06-25T14:23:57.246166"
  },
  {
    "name": "Hard Rock Cafe",
    "address": "1501 Broadway, New York, NY 10036, USA",
    "postal_code": "10001",
    "phone": "(212) 343-3355",
    "rating": 4.4,
    "review_count": 23676,
    "cuisine_type": "Restaurante",
    "business_hours": {
      "day_0": "Monday: 10:00 AM – 11:00 PM",
      "day_1": "Tuesday: 10:00 AM – 11:00 PM",
      "day_2": "Wednesday: 10:00 AM – 11:00 PM",
      "day_3": "Thursday: 10:00 AM – 11:00 PM",
      "day_4": "Friday: 10:00 AM – 12:00 AM",
      "day_5": "Saturday: 10:00 AM – 12:00 AM",
      "day_6": "Sunday: 10:00 AM – 11:00 PM"
    },
    "website": "https://cafe.hardrock.com/new-york/#utm_source=Google&utm_medium=Yext&utm_campaign=Listings",
    "latitude": 40.7570352,
    "longitude": -73.9866112,
    "scraped_at": "2025-06-25T14:23:57.669621"
  },
  {
    "name": "Red Lobster",
    "address": "Five Times Square, W 41st St, New York, NY 10036, USA",
    "postal_code": "10001",
    "phone": "(212) 730-6706",
    "rating": 4.2,
    "review_count": 10099,
    "cuisine_type": "Restaurante",
    "business_hours": {
      "day_0": "Monday: 11:00 AM – 11:00 PM",
      "day_1": "Tuesday: 11:00 AM – 11:00 PM",
      "day_2": "Wednesday: 11:00 AM – 11:00 PM",
      "day_3": "Thursday: 11:00 AM – 11:00 PM",
      "day_4": "Friday: 11:00 AM – 12:00 AM",
      "day_5": "Saturday: 11:00 AM – 12:00 AM",
      "day_6": "Sunday: 11:00 AM – 11:00 PM"
    },
    "website": "https://www.redlobster.com/seafood-restaurants/locations/ny/new-york/5-times-square-nyc5",
    "latitude": 40.7559974,
    "longitude": -73.9876021,
    "scraped_at": "2025-06-25T14:23:57.999429"
  },
  {
    "name": "Quality Meats",
    "address": "57 W 58th St, New York, NY 10019, USA",
    "postal_code": "10001",
    "phone": "(212) 371-7777",
    "rating": 4.5,
    "review_count": 3106,
    "cuisine_type": "Restaurante",
    "business_hours": {
      "day_0": "Monday: 11:30 AM – 3:00 PM, 5:00 – 11:00 PM",
      "day_1": "Tuesday: 11:30 AM – 3:00 PM, 5:00 – 11:00 PM",
      "day_2": "Wednesday: 11:30 AM – 3:00 PM, 5:00 – 11:00 PM",
      "day_3": "Thursday: 11:30 AM – 3:00 PM, 5:00 – 11:00 PM",
      "day_4": "Friday: 11:30 AM – 3:00 PM, 5:00 – 11:00 PM",
      "day_5": "Saturday: 5:00 – 11:00 PM",
      "day_6": "Sunday: 5:00 – 11:00 PM"
    },
    "website": "http://qualitymeatsnyc.com/",
    "latitude": 40.76500850000001,
    "longitude": -73.9761481,
    "scraped_at": "2025-06-25T14:24:00.551361"
  },
  {
    "name": "Sophie's Cuban Cuisine - Midtown West",
    "address": "21 W 45th St A, New York, NY 10036, USA",
    "postal_code": "10001",
    "phone": "(212) 302-1211",
    "rating": 4.3,
    "review_count": 760,
    "cuisine_type": "Restaurante",
    "business_hours": {
      "day_0": "Monday: 11:00 AM – 8:00 PM",
      "day_1": "Tuesday: 11:00 AM – 8:00 PM",
      "day_2": "Wednesday: 11:00 AM – 8:00 PM",
      "day_3": "Thursday: 11:00 AM – 8:00 PM",
      "day_4": "Friday: 11:00 AM – 8:00 PM",
      "day_5": "Saturday: Closed",
      "day_6": "Sunday: Closed"
    },
    "website": "https://www.sophiescuban.com/",
    "latitude": 40.7560441,
    "longitude": -73.980411,
    "scraped_at": "2025-06-25T14:24:00.912444"
  },
  {
    "name": "Olive Garden Italian Restaurant",
    "address": "2 Times Sq, New York, NY 10036, USA",
    "postal_code": "10001",
    "phone": "(212) 333-3254",
    "rating": 4.1,
    "review_count": 7262,
    "cuisine_type": "Restaurante",
    "business_hours": {
      "day_0": "Monday: 11:00 AM – 12:00 AM",
      "day_1": "Tuesday: 11:00 AM – 12:00 AM",
      "day_2": "Wednesday: 11:00 AM – 12:00 AM",
      "day_3": "Thursday: 11:00 AM – 12:00 AM",
      "day_4": "Friday: 11:00 AM – 1:00 AM",
      "day_5": "Saturday: 11:00 AM – 1:00 AM",
      "day_6": "Sunday: 11:00 AM – 12:00 AM"
    },
    "website": "https://www.olivegarden.com/locations/ny/new-york/nyc-times-square/1451?cmpid=br:og_ag:ie_ch:loc_ca:OGGMB_sn:gmb_gt:new-york-ny-1451_pl:locurl_rd:1335",
    "latitude": 40.75946,
    "longitude": -73.9847861,
    "scraped_at": "2025-06-25T14:24:01.413348"
  },
  {
    "name": "Stout NYC",
    "address": "133 W 33rd St, New York, NY 10001, USA",
    "postal_code": "10001",
    "phone": "(212) 629-6191",
    "rating": 4.2,
    "review_count": 3321,
    "cuisine_type": "Restaurante",
    "business_hours": {
      "day_0": "Monday: 11:30 AM – 1:00 AM",
      "day_1": "Tuesday: 11:30 AM – 1:00 AM",
      "day_2": "Wednesday: 11:30 AM – 2:00 AM",
      "day_3": "Thursday: 11:30 AM – 2:00 AM",
      "day_4": "Friday: 11:30 AM – 2:00 AM",
      "day_5": "Saturday: 11:30 AM – 2:00 AM",
      "day_6": "Sunday: 11:30 AM – 1:00 AM"
    },
    "website": "https://www.stoutnyc.com/",
    "latitude": 40.749966,
    "longitude": -73.98986599999999,
    "scraped_at": "2025-06-25T14:24:01.990293"
  },
  {
    "name": "The Smith",
    "address": "956 2nd Ave, New York, NY 10022, USA",
    "postal_code": "10001",
    "phone": "(212) 644-2700",
    "rating": 4.4,
    "review_count": 5499,
    "cuisine_type": "Restaurante",
    "business_hours": {
      "day_0": "Monday: 8:00 AM – 11:00 PM",
      "day_1": "Tuesday: 8:00 AM – 11:00 PM",
      "day_2": "Wednesday: 8:00 AM – 11:00 PM",
      "day_3": "Thursday: 8:00 AM – 11:00 PM",
      "day_4": "Friday: 8:00 AM – 11:00 PM",
      "day_5": "Saturday: 9:00 AM – 11:00 PM",
      "day_6": "Sunday: 9:00 AM – 11:00 PM"
    },
    "website": "https://thesmithrestaurant.com/location/midtown/",
    "latitude": 40.755202,
    "longitude": -73.967987,
    "scraped_at": "2025-06-25T14:24:02.545803"
  },
  {
    "name": "Gramercy Tavern",
    "address": "42 E 20th St, New York, NY 10003, USA",
    "postal_code": "10001",
    "phone": "(212) 477-0777",
    "rating": 4.6,
    "review_count": 4432,
    "cuisine_type": "Restaurante",
    "business_hours": {
      "day_0": "Monday: 11:30 AM – 10:30 PM",
      "day_1": "Tuesday: 11:30 AM – 10:30 PM",
      "day_2": "Wednesday: 11:30 AM – 10:30 PM",
      "day_3": "Thursday: 11:30 AM – 10:30 PM",
      "day_4": "Friday: 11:30 AM – 10:30 PM",
      "day_5": "Saturday: 11:30 AM – 10:30 PM",
      "day_6": "Sunday: 11:30 AM – 10:30 PM"
    },
    "website": "http://www.gramercytavern.com/?utm_source=GoogleBusinessProfile&utm_medium=Website&utm_campaign=MapLabs",
    "latitude": 40.7384555,
    "longitude": -73.98850639999999,
    "scraped_at": "2025-06-25T14:24:03.151342"
  },
  {
    "name": "Nobu Fifty Seven",
    "address": "40 W 57th St, New York, NY 10019, USA",
    "postal_code": "10001",
    "phone": "(212) 757-3000",
    "rating": 4.4,
    "review_count": 2462,
    "cuisine_type": "Restaurante",
    "business_hours": {
      "day_0": "Monday: 11:45 AM – 10:15 PM",
      "day_1": "Tuesday: 11:45 AM – 10:15 PM",
      "day_2": "Wednesday: 11:45 AM – 10:15 PM",
      "day_3": "Thursday: 11:45 AM – 10:15 PM",
      "day_4": "Friday: 11:45 AM – 11:15 PM",
      "day_5": "Saturday: 11:45 AM – 11:15 PM",
      "day_6": "Sunday: 11:45 AM – 10:15 PM"
    },
    "website": "https://www.noburestaurants.com/fifty-seven/home/?utm_source=google&utm_medium=Yext",
    "latitude": 40.763705,
    "longitude": -73.9762452,
    "scraped_at": "2025-06-25T14:24:03.476507"
  },
  {
    "name": "IPPUDO NY",
    "address": "65 4th Ave, New York, NY 10003, USA",
    "postal_code": "10001",
    "phone": "(212) 388-0088",
    "rating": 4.4,
    "review_count": 5295,
    "cuisine_type": "Restaurante",
    "business_hours": {
      "day_0": "Monday: 10:30 AM – 11:00 PM",
      "day_1": "Tuesday: 10:30 AM – 11:00 PM",
      "day_2": "Wednesday: 10:30 AM – 11:00 PM",
      "day_3": "Thursday: 10:30 AM – 11:00 PM",
      "day_4": "Friday: 10:30 AM – 12:00 AM",
      "day_5": "Saturday: 10:30 AM – 12:00 AM",
      "day_6": "Sunday: 10:30 AM – 11:00 PM"
    },
    "website": "http://www.ippudony.com/",
    "latitude": 40.730948,
    "longitude": -73.990287,
    "scraped_at": "2025-06-25T14:24:03.915333"
  },
  {
    "name": "Dominique Ansel Bakery",
    "address": "189 Spring St, New York, NY 10012, USA",
    "postal_code": "10001",
    "phone": "(212) 219-2773",
    "rating": 4.3,
    "review_count": 8664,
    "cuisine_type": "Restaurante",
    "business_hours": {
      "day_0": "Monday: 8:00 AM – 7:00 PM",
      "day_1": "Tuesday: 8:00 AM – 7:00 PM",
      "day_2": "Wednesday: 8:00 AM – 7:00 PM",
      "day_3": "Thursday: 8:00 AM – 7:00 PM",
      "day_4": "Friday: 8:00 AM – 8:00 PM",
      "day_5": "Saturday: 8:00 AM – 8:00 PM",
      "day_6": "Sunday: 8:00 AM – 7:00 PM"
    },
    "website": "http://www.dominiqueanselny.com/",
    "latitude": 40.7252509,
    "longitude": -74.0028734,
    "scraped_at": "2025-06-25T14:24:04.410836"
  },
  {
    "name": "Mighty Quinn's Barbeque",
    "address": "75 Greenwich Ave, New York, NY 10014, USA",
    "postal_code": "10001",
    "phone": "(646) 524-7889",
    "rating": 4.3,
    "review_count": 3742,
    "cuisine_type": "Restaurante",
    "business_hours": {
      "day_0": "Monday: 11:30 AM – 9:30 PM",
      "day_1": "Tuesday: 11:30 AM – 9:30 PM",
      "day_2": "Wednesday: 11:30 AM – 9:30 PM",
      "day_3": "Thursday: 11:30 AM – 9:30 PM",
      "day_4": "Friday: 11:30 AM – 9:30 PM",
      "day_5": "Saturday: 11:30 AM – 9:30 PM",
      "day_6": "Sunday: 11:30 AM – 9:30 PM"
    },
    "website": "http://mightyquinnsbbq.com/",
    "latitude": 40.7367129,
    "longitude": -74.00139349999999,
    "scraped_at": "2025-06-25T14:24:04.694308"
  },
  {
    "name": "Marea",
    "address": "240 Central Park S, New York, NY 10019, USA",
    "postal_code": "10001",
    "phone": "(212) 582-5100",
    "rating": 4.5,
    "review_count": 2846,
    "cuisine_type": "Restaurante",
    "business_hours": {
      "day_0": "Monday: 12:00 – 11:00 PM",
      "day_1": "Tuesday: 12:00 – 11:00 PM",
      "day_2": "Wednesday: 12:00 – 11:00 PM",
      "day_3": "Thursday: 12:00 – 11:00 PM",
      "day_4": "Friday: 12:00 – 11:45 PM",
      "day_5": "Saturday: 12:00 – 11:45 PM",
      "day_6": "Sunday: 12:00 – 11:00 PM"
    },
    "website": "https://www.marearestaurant.com/new-york?utm_source=GoogleBusinessProfile&utm_medium=organic&utm_campaign=MapLabs",
    "latitude": 40.7674251,
    "longitude": -73.9811137,
    "scraped_at": "2025-06-25T14:24:05.057839"
  },
  {
    "name": "The Capital Grille",
    "address": "120 W 51st St, New York, NY 10020, USA",
    "postal_code": "10001",
    "phone": "(212) 246-0154",
    "rating": 4.6,
    "review_count": 1583,
    "cuisine_type": "Restaurante",
    "business_hours": {
      "day_0": "Monday: 11:30 AM – 9:30 PM",
      "day_1": "Tuesday: 11:30 AM – 9:30 PM",
      "day_2": "Wednesday: 11:30 AM – 9:30 PM",
      "day_3": "Thursday: 11:30 AM – 9:30 PM",
      "day_4": "Friday: 11:30 AM – 10:00 PM",
      "day_5": "Saturday: 4:00 – 10:00 PM",
      "day_6": "Sunday: 4:00 – 9:00 PM"
    },
    "website": "https://www.thecapitalgrille.com/locations/ny/new-york/nyc-rockefeller-center/8038?cmpid=br:tcg_ag:ie_ch:loc_ca:TCGGMB_sn:gmb_gt:new-york-ny-8038_pl:locurl_rd:1034",
    "latitude": 40.760861,
    "longitude": -73.98105699999999,
    "scraped_at": "2025-06-25T14:24:05.573455"
  },
  {
    "name": "McGee's Pub",
    "address": "240 W 55th St, New York, NY 10019, USA",
    "postal_code": "10001",
    "phone": "(212) 957-3536",
    "rating": 4.1,
    "review_count": 5222,
    "cuisine_type": "Restaurante",
    "business_hours": {
      "day_0": "Monday: 11:00 AM – 2:00 AM",
      "day_1": "Tuesday: 11:00 AM – 2:00 AM",
      "day_2": "Wednesday: 11:00 AM – 2:00 AM",
      "day_3": "Thursday: 11:00 AM – 2:00 AM",
      "day_4": "Friday: 11:00 AM – 2:00 AM",
      "day_5": "Saturday: 11:00 AM – 2:00 AM",
      "day_6": "Sunday: 11:00 AM – 2:00 AM"
    },
    "website": "http://mcgeespubny.com/",
    "latitude": 40.76484,
    "longitude": -73.982993,
    "scraped_at": "2025-06-25T14:24:06.029861"
  },
  {
    "name": "Dave & Buster's New York City - Times Square",
    "address": "234 W 42nd St 3rd Floor, New York, NY 10036, USA",
    "postal_code": "10001",
    "phone": "(646) 495-2015",
    "rating": 4.2,
    "review_count": 9948,
    "cuisine_type": "Restaurante",
    "business_hours": {
      "day_0": "Monday: 10:00 AM – 12:00 AM",
      "day_1": "Tuesday: 10:00 AM – 12:00 AM",
      "day_2": "Wednesday: 10:00 AM – 1:00 AM",
      "day_3": "Thursday: 10:00 AM – 1:00 AM",
      "day_4": "Friday: 10:00 AM – 2:00 AM",
      "day_5": "Saturday: 10:00 AM – 2:00 AM",
      "day_6": "Sunday: 10:00 AM – 12:00 AM"
    },
    "website": "https://www.daveandbusters.com/us/en/about/locations/new-york-city-times-square",
    "latitude": 40.756536,
    "longitude": -73.98863399999999,
    "scraped_at": "2025-06-25T14:24:06.423796"
  },
  {
    "name": "Eleven Madison Park",
    "address": "11 Madison Ave, New York, NY 10010, USA",
    "postal_code": "10001",
    "phone": "(212) 889-0905",
    "rating": 4.4,
    "review_count": 3057,
    "cuisine_type": "Restaurante",
    "business_hours": {
      "day_0": "Monday: 5:00 – 10:00 PM",
      "day_1": "Tuesday: 5:00 – 10:00 PM",
      "day_2": "Wednesday: 5:00 – 10:00 PM",
      "day_3": "Thursday: 5:00 – 10:00 PM",
      "day_4": "Friday: 5:00 – 10:00 PM",
      "day_5": "Saturday: 12:00 – 1:30 PM, 5:00 – 11:00 PM",
      "day_6": "Sunday: 12:00 – 1:30 PM, 5:00 – 11:00 PM"
    },
    "website": "https://www.elevenmadisonpark.com/",
    "latitude": 40.7416519,
    "longitude": -73.9872353,
    "scraped_at": "2025-06-25T14:24:06.758336"
  },
  {
    "name": "One if by Land, Two if by Sea",
    "address": "17 Barrow St, New York, NY 10014, USA",
    "postal_code": "10001",
    "phone": "(212) 255-8649",
    "rating": 4.2,
    "review_count": 1218,
    "cuisine_type": "Restaurante",
    "business_hours": {
      "day_0": "Monday: Closed",
      "day_1": "Tuesday: Closed",
      "day_2": "Wednesday: 5:00 – 9:30 PM",
      "day_3": "Thursday: 5:00 – 9:30 PM",
      "day_4": "Friday: 5:00 – 10:30 PM",
      "day_5": "Saturday: 5:00 – 10:30 PM",
      "day_6": "Sunday: 5:00 – 9:00 PM"
    },
    "website": "http://www.oneifbyland.com/",
    "latitude": 40.732548,
    "longitude": -74.0026278,
    "scraped_at": "2025-06-25T14:24:07.198389"
  },
  {
    "name": "Old Homestead Steakhouse",
    "address": "56 9th Ave, New York, NY 10011, USA",
    "postal_code": "10001",
    "phone": "(212) 242-9040",
    "rating": 4.1,
    "review_count": 2307,
    "cuisine_type": "Restaurante",
    "business_hours": {
      "day_0": "Monday: Closed",
      "day_1": "Tuesday: 5:00 – 9:00 PM",
      "day_2": "Wednesday: 5:00 – 9:00 PM",
      "day_3": "Thursday: 5:00 – 9:00 PM",
      "day_4": "Friday: 5:00 – 9:00 PM",
      "day_5": "Saturday: 5:00 – 10:00 PM",
      "day_6": "Sunday: 4:00 – 9:00 PM"
    },
    "website": "https://www.theoldhomesteadsteakhouse.com/",
    "latitude": 40.7412007,
    "longitude": -74.0047629,
    "scraped_at": "2025-06-25T14:24:07.797890"
  },
  {
    "name": "Ai Fiori",
    "address": "400 5th Ave #2, New York, NY 10018, USA",
    "postal_code": "10001",
    "phone": "(212) 613-8660",
    "rating": 4.4,
    "review_count": 1734,
    "cuisine_type": "Restaurante",
    "business_hours": {
      "day_0": "Monday: 7:00 – 11:00 AM, 12:00 – 10:30 PM",
      "day_1": "Tuesday: 7:00 – 11:00 AM, 12:00 – 10:30 PM",
      "day_2": "Wednesday: 7:00 – 11:00 AM, 12:00 – 10:30 PM",
      "day_3": "Thursday: 7:00 – 11:00 AM, 12:00 – 10:30 PM",
      "day_4": "Friday: 7:00 – 11:00 AM, 12:00 – 11:30 PM",
      "day_5": "Saturday: 7:30 – 11:30 AM, 2:00 – 11:30 PM",
      "day_6": "Sunday: 7:30 – 11:30 AM, 2:00 – 9:30 PM"
    },
    "website": "https://aifiorinyc.com/?utm_source=GoogleBusinessProfile&utm_medium=organic&utm_campaign=MapLabs",
    "latitude": 40.7500752,
    "longitude": -73.9837835,
    "scraped_at": "2025-06-25T14:24:08.080926"
  },
  {
    "name": "Waverly Inn",
    "address": "16 Bank St, New York, NY 10014, USA",
    "postal_code": "10001",
    "phone": "(917) 828-1154",
    "rating": 4.3,
    "review_count": 818,
    "cuisine_type": "Restaurante",
    "business_hours": {
      "day_0": "Monday: 5:00 – 10:00 PM",
      "day_1": "Tuesday: 5:00 – 10:00 PM",
      "day_2": "Wednesday: 5:00 – 10:00 PM",
      "day_3": "Thursday: 5:00 – 10:00 PM",
      "day_4": "Friday: 5:00 – 10:00 PM",
      "day_5": "Saturday: 11:00 AM – 10:00 PM",
      "day_6": "Sunday: 11:00 AM – 10:00 PM"
    },
    "website": "http://www.waverlynyc.com/",
    "latitude": 40.7369442,
    "longitude": -74.0022445,
    "scraped_at": "2025-06-25T14:24:08.514942"
  },
  {
    "name": "Becco",
    "address": "355 W 46th St, New York, NY 10036, USA",
    "postal_code": "10001",
    "phone": "(212) 397-7597",
    "rating": 4.3,
    "review_count": 4347,
    "cuisine_type": "Restaurante",
    "business_hours": {
      "day_0": "Monday: Closed",
      "day_1": "Tuesday: 4:30 – 10:00 PM",
      "day_2": "Wednesday: 11:30 AM – 2:30 PM, 4:30 – 10:00 PM",
      "day_3": "Thursday: 4:30 – 9:00 PM",
      "day_4": "Friday: 4:30 – 11:00 PM",
      "day_5": "Saturday: 11:30 AM – 2:30 PM, 4:00 – 11:00 PM",
      "day_6": "Sunday: 12:00 – 9:00 PM"
    },
    "website": "http://www.becco-nyc.com/",
    "latitude": 40.760804,
    "longitude": -73.98983240000001,
    "scraped_at": "2025-06-25T14:24:08.884928"
  },
  {
    "name": "The Magic Time Machine",
    "address": "5003 Belt Line Rd, Dallas, TX 75254, USA",
    "postal_code": "75001",
    "phone": "(972) 980-1903",
    "rating": 4.2,
    "review_count": 4060,
    "cuisine_type": "Restaurante",
    "business_hours": {
      "day_0": "Monday: 5:00 – 10:00 PM",
      "day_1": "Tuesday: 5:00 – 10:00 PM",
      "day_2": "Wednesday: 5:00 – 10:00 PM",
      "day_3": "Thursday: 5:00 – 10:00 PM",
      "day_4": "Friday: 4:00 – 10:30 PM",
      "day_5": "Saturday: 4:00 – 10:30 PM",
      "day_6": "Sunday: 4:00 – 9:00 PM"
    },
    "website": "http://www.magictimemachine.com/",
    "latitude": 32.9546338,
    "longitude": -96.825299,
    "scraped_at": "2025-06-25T14:24:09.975550"
  },
  {
    "name": "Texas de Brazil - Addison",
    "address": "15101 Addison Rd, Addison, TX 75001, USA",
    "postal_code": "75001",
    "phone": "(972) 385-4350",
    "rating": 4.5,
    "review_count": 4954,
    "cuisine_type": "Restaurante",
    "business_hours": {
      "day_0": "Monday: 11:00 AM – 2:00 PM, 5:00 – 9:00 PM",
      "day_1": "Tuesday: 11:00 AM – 2:00 PM, 5:00 – 9:00 PM",
      "day_2": "Wednesday: 11:00 AM – 2:00 PM, 5:00 – 9:00 PM",
      "day_3": "Thursday: 11:00 AM – 2:00 PM, 5:00 – 9:00 PM",
      "day_4": "Friday: 11:00 AM – 2:00 PM, 5:00 – 10:00 PM",
      "day_5": "Saturday: 11:30 AM – 3:30 PM, 4:00 – 10:00 PM",
      "day_6": "Sunday: 11:30 AM – 3:30 PM, 4:00 – 9:00 PM"
    },
    "website": "https://texasdebrazil.com/locations/addison/?utm_source=gmb&utm_medium=yext&y_source=1_NDg4MzA3MDUtNzE1LWxvY2F0aW9uLndlYnNpdGU%3D",
    "latitude": 32.95463,
    "longitude": -96.83027799999999,
    "scraped_at": "2025-06-25T14:24:10.417802"
  },
  {
    "name": "Blue Mesa Grill",
    "address": "14866 Montfort Dr, Dallas, TX 75254, USA",
    "postal_code": "75001",
    "phone": "(972) 934-0165",
    "rating": 4.3,
    "review_count": 2514,
    "cuisine_type": "Restaurante",
    "business_hours": {
      "day_0": "Monday: Closed",
      "day_1": "Tuesday: 11:00 AM – 9:00 PM",
      "day_2": "Wednesday: 11:00 AM – 9:00 PM",
      "day_3": "Thursday: 11:00 AM – 9:00 PM",
      "day_4": "Friday: 11:00 AM – 10:00 PM",
      "day_5": "Saturday: 10:00 AM – 10:00 PM",
      "day_6": "Sunday: 9:30 AM – 5:00 PM"
    },
    "website": "https://bluemesagrill.com/",
    "latitude": 32.9512829,
    "longitude": -96.8180653,
    "scraped_at": "2025-06-25T14:24:10.988768"
  },
  {
    "name": "Gloria's Latin Cuisine",
    "address": "5100 Belt Line Rd Suite 864, Addison, TX 75254, USA",
    "postal_code": "75001",
    "phone": "(972) 387-8442",
    "rating": 4.5,
    "review_count": 4926,
    "cuisine_type": "Restaurante",
    "business_hours": {
      "day_0": "Monday: 11:00 AM – 9:00 PM",
      "day_1": "Tuesday: 11:00 AM – 9:00 PM",
      "day_2": "Wednesday: 11:00 AM – 9:00 PM",
      "day_3": "Thursday: 11:00 AM – 9:00 PM",
      "day_4": "Friday: 11:00 AM – 11:00 PM",
      "day_5": "Saturday: 11:00 AM – 2:00 AM",
      "day_6": "Sunday: 11:00 AM – 9:00 PM"
    },
    "website": "https://gloriascuisine.com/locations/addison.html?utm_source=google&utm_medium=Yext&y_source=1_MjA1ODAzNDQtNzE1LWxvY2F0aW9uLndlYnNpdGU%3D",
    "latitude": 32.9518203,
    "longitude": -96.82193110000001,
    "scraped_at": "2025-06-25T14:24:11.547484"
  },
  {
    "name": "Bowlero Dallas",
    "address": "3805 Belt Line Rd, Addison, TX 75001, USA",
    "postal_code": "75001",
    "phone": "(972) 620-7700",
    "rating": 4.2,
    "review_count": 1841,
    "cuisine_type": "Restaurante",
    "business_hours": {
      "day_0": "Monday: 12:00 PM – 12:00 AM",
      "day_1": "Tuesday: 12:00 PM – 12:00 AM",
      "day_2": "Wednesday: 12:00 PM – 12:00 AM",
      "day_3": "Thursday: 12:00 PM – 12:00 AM",
      "day_4": "Friday: 12:00 PM – 2:00 AM",
      "day_5": "Saturday: 11:00 AM – 2:00 AM",
      "day_6": "Sunday: 11:00 AM – 12:00 AM"
    },
    "website": "https://www.bowlero.com/location/bowlero-dallas",
    "latitude": 32.9551332,
    "longitude": -96.85047039999999,
    "scraped_at": "2025-06-25T14:24:12.043942"
  },
  {
    "name": "BJ's Restaurant & Brewhouse",
    "address": "4901 Belt Line Rd, Dallas, TX 75254, USA",
    "postal_code": "75001",
    "phone": "(972) 392-4600",
    "rating": 4.2,
    "review_count": 2460,
    "cuisine_type": "Restaurante",
    "business_hours": {
      "day_0": "Monday: 11:00 AM – 12:00 AM",
      "day_1": "Tuesday: 11:00 AM – 12:00 AM",
      "day_2": "Wednesday: 11:00 AM – 12:00 AM",
      "day_3": "Thursday: 11:00 AM – 12:00 AM",
      "day_4": "Friday: 11:00 AM – 12:00 AM",
      "day_5": "Saturday: 11:00 AM – 12:00 AM",
      "day_6": "Sunday: 11:00 AM – 11:00 PM"
    },
    "website": "https://www.bjsrestaurants.com/locations/tx/addison?utm_source=google&utm_medium=organic&utm_campaign=google_my_business",
    "latitude": 32.9546649,
    "longitude": -96.82802369999999,
    "scraped_at": "2025-06-25T14:24:12.505768"
  },
  {
    "name": "Kenny's Wood Fired Grill",
    "address": "5000 Belt Line Rd Suite 775, Dallas, TX 75254, USA",
    "postal_code": "75001",
    "phone": "(972) 392-9663",
    "rating": 4.7,
    "review_count": 3831,
    "cuisine_type": "Restaurante",
    "business_hours": {
      "day_0": "Monday: 11:00 AM – 10:00 PM",
      "day_1": "Tuesday: 11:00 AM – 10:00 PM",
      "day_2": "Wednesday: 11:00 AM – 10:00 PM",
      "day_3": "Thursday: 11:00 AM – 10:00 PM",
      "day_4": "Friday: 11:00 AM – 11:00 PM",
      "day_5": "Saturday: 11:00 AM – 11:00 PM",
      "day_6": "Sunday: 11:00 AM – 10:00 PM"
    },
    "website": "http://www.kennyswoodfiredgrill.com/",
    "latitude": 32.9533806,
    "longitude": -96.8236567,
    "scraped_at": "2025-06-25T14:24:12.975758"
  },
  {
    "name": "Ruth's Chris Steak House",
    "address": "17840 Dallas Pkwy, Dallas, TX 75287, USA",
    "postal_code": "75001",
    "phone": "(972) 250-2244",
    "rating": 4.6,
    "review_count": 2923,
    "cuisine_type": "Restaurante",
    "business_hours": {
      "day_0": "Monday: 4:00 – 10:00 PM",
      "day_1": "Tuesday: 4:00 – 10:00 PM",
      "day_2": "Wednesday: 4:00 – 10:00 PM",
      "day_3": "Thursday: 4:00 – 10:00 PM",
      "day_4": "Friday: 4:00 – 10:30 PM",
      "day_5": "Saturday: 4:00 – 10:30 PM",
      "day_6": "Sunday: 4:00 – 9:00 PM"
    },
    "website": "https://www.ruthschris.com/locations/tx/dallas/dallas/7312?cmpid=br:rc_ag:ie_ch:loc_ca:RCGMB_sn:gmb_gt:dallas-tx-7312_pl:locurl_rd:1027",
    "latitude": 32.9933206,
    "longitude": -96.8285265,
    "scraped_at": "2025-06-25T14:24:13.548300"
  },
  {
    "name": "Buffalo Wild Wings",
    "address": "5000 Belt Line Rd #100, Dallas, TX 75254, USA",
    "postal_code": "75001",
    "phone": "(972) 701-9464",
    "rating": 3.8,
    "review_count": 2089,
    "cuisine_type": "Restaurante",
    "business_hours": {
      "day_0": "Monday: 11:00 AM – 12:00 AM",
      "day_1": "Tuesday: 11:00 AM – 12:00 AM",
      "day_2": "Wednesday: 11:00 AM – 12:00 AM",
      "day_3": "Thursday: 11:00 AM – 1:00 AM",
      "day_4": "Friday: 11:00 AM – 2:00 AM",
      "day_5": "Saturday: 11:00 AM – 2:00 AM",
      "day_6": "Sunday: 11:00 AM – 12:00 AM"
    },
    "website": "https://www.buffalowildwings.com/locations/us/tx/dallas/5000-belt-line-rd/sports-bar-78?utm_source=google%20my%20business&utm_medium=organic&utm_campaign=website%20link",
    "latitude": 32.9534684,
    "longitude": -96.8255793,
    "scraped_at": "2025-06-25T14:24:14.050760"
  },
  {
    "name": "Pappadeaux Seafood Kitchen",
    "address": "18349 Dallas Pkwy, Dallas, TX 75287, USA",
    "postal_code": "75001",
    "phone": "(972) 447-9616",
    "rating": 4.5,
    "review_count": 6549,
    "cuisine_type": "Restaurante",
    "business_hours": {
      "day_0": "Monday: 11:00 AM – 9:00 PM",
      "day_1": "Tuesday: 11:00 AM – 9:00 PM",
      "day_2": "Wednesday: 11:00 AM – 9:00 PM",
      "day_3": "Thursday: 11:00 AM – 9:00 PM",
      "day_4": "Friday: 11:00 AM – 10:00 PM",
      "day_5": "Saturday: 11:00 AM – 10:00 PM",
      "day_6": "Sunday: 11:00 AM – 9:00 PM"
    },
    "website": "https://pappadeaux.com/",
    "latitude": 32.9991724,
    "longitude": -96.8303742,
    "scraped_at": "2025-06-25T14:24:14.542936"
  },
  {
    "name": "Fogo de Chao - Addison",
    "address": "4300 Belt Line Rd, Addison, TX 75001, USA",
    "postal_code": "75001",
    "phone": "(972) 503-7300",
    "rating": 4.6,
    "review_count": 5207,
    "cuisine_type": "Restaurante",
    "business_hours": {
      "day_0": "Monday: 11:30 AM – 10:00 PM",
      "day_1": "Tuesday: 11:30 AM – 10:00 PM",
      "day_2": "Wednesday: 11:30 AM – 10:00 PM",
      "day_3": "Thursday: 11:30 AM – 10:00 PM",
      "day_4": "Friday: 11:30 AM – 10:30 PM",
      "day_5": "Saturday: 11:30 AM – 10:30 PM",
      "day_6": "Sunday: 11:30 AM – 9:00 PM"
    },
    "website": "https://fogodechao.com/location/dallas/",
    "latitude": 32.9538084,
    "longitude": -96.83774290000001,
    "scraped_at": "2025-06-25T14:24:14.785811"
  },
  {
    "name": "Osaka Sushi & Grill All You Can Eat Buffet",
    "address": "4350 Belt Line Rd, Addison, TX 75001, USA",
    "postal_code": "75001",
    "phone": "(972) 386-8899",
    "rating": 4.2,
    "review_count": 2906,
    "cuisine_type": "Restaurante",
    "business_hours": {
      "day_0": "Monday: 11:30 AM – 3:00 PM, 5:30 – 9:30 PM",
      "day_1": "Tuesday: 11:30 AM – 3:00 PM, 5:30 – 9:30 PM",
      "day_2": "Wednesday: 11:30 AM – 3:00 PM, 5:30 – 9:30 PM",
      "day_3": "Thursday: 11:30 AM – 3:00 PM, 5:30 – 9:30 PM",
      "day_4": "Friday: 11:30 AM – 3:00 PM, 5:30 – 10:00 PM",
      "day_5": "Saturday: 11:30 AM – 3:00 PM, 5:30 – 10:00 PM",
      "day_6": "Sunday: 11:30 AM – 3:00 PM, 5:30 – 9:30 PM"
    },
    "website": "https://www.osakaaddisontx.com/",
    "latitude": 32.9539524,
    "longitude": -96.8373629,
    "scraped_at": "2025-06-25T14:24:15.285317"
  },
  {
    "name": "Uncle Julio's Keller Springs",
    "address": "16150 Dallas Pkwy #4, Dallas, TX 75248, USA",
    "postal_code": "75001",
    "phone": "(972) 380-0100",
    "rating": 4.2,
    "review_count": 3229,
    "cuisine_type": "Restaurante",
    "business_hours": {
      "day_0": "Monday: 11:00 AM – 10:00 PM",
      "day_1": "Tuesday: 11:00 AM – 10:00 PM",
      "day_2": "Wednesday: 11:00 AM – 10:00 PM",
      "day_3": "Thursday: 11:00 AM – 10:00 PM",
      "day_4": "Friday: 11:00 AM – 11:00 PM",
      "day_5": "Saturday: 11:00 AM – 11:00 PM",
      "day_6": "Sunday: 11:00 AM – 9:00 PM"
    },
    "website": "https://unclejulios.com/",
    "latitude": 32.9698866,
    "longitude": -96.8204708,
    "scraped_at": "2025-06-25T14:24:15.822011"
  },
  {
    "name": "P.F. Chang's",
    "address": "18323 Dallas Pkwy, Dallas, TX 75287, USA",
    "postal_code": "75001",
    "phone": "(972) 818-3336",
    "rating": 4.3,
    "review_count": 2641,
    "cuisine_type": "Restaurante",
    "business_hours": {
      "day_0": "Monday: 11:00 AM – 10:00 PM",
      "day_1": "Tuesday: 11:00 AM – 10:00 PM",
      "day_2": "Wednesday: 11:00 AM – 10:00 PM",
      "day_3": "Thursday: 11:00 AM – 10:00 PM",
      "day_4": "Friday: 11:00 AM – 11:00 PM",
      "day_5": "Saturday: 11:00 AM – 11:00 PM",
      "day_6": "Sunday: 11:00 AM – 10:00 PM"
    },
    "website": "https://www.pfchangs.com/locations/us/tx/dallas/18323-n-dallas-pkwy/2900-north-dallas-tollway.html?utm_source=google_gbp&utm_medium=organic",
    "latitude": 32.9985187,
    "longitude": -96.83023449999999,
    "scraped_at": "2025-06-25T14:24:16.092744"
  },
  {
    "name": "Chuck E. Cheese",
    "address": "13364 Montfort Dr, Dallas, TX 75240, USA",
    "postal_code": "75001",
    "phone": "(972) 392-1944",
    "rating": 4.2,
    "review_count": 1327,
    "cuisine_type": "Restaurante",
    "business_hours": {
      "day_0": "Monday: 10:00 AM – 9:00 PM",
      "day_1": "Tuesday: 10:00 AM – 9:00 PM",
      "day_2": "Wednesday: 10:00 AM – 9:00 PM",
      "day_3": "Thursday: 10:00 AM – 9:00 PM",
      "day_4": "Friday: 10:00 AM – 10:00 PM",
      "day_5": "Saturday: 10:00 AM – 10:00 PM",
      "day_6": "Sunday: 10:00 AM – 9:00 PM"
    },
    "website": "https://www.chuckecheese.com/dallas-north",
    "latitude": 32.9310412,
    "longitude": -96.8107053,
    "scraped_at": "2025-06-25T14:24:16.687451"
  },
  {
    "name": "Fat Straws Boba & Mochi Donuts (Alpha & Noel)",
    "address": "5301 Alpha Rd #38, Dallas, TX 75240, USA",
    "postal_code": "75001",
    "phone": "(972) 702-8181",
    "rating": 4.4,
    "review_count": 444,
    "cuisine_type": "Restaurante",
    "business_hours": {
      "day_0": "Monday: 11:00 AM – 8:00 PM",
      "day_1": "Tuesday: 11:00 AM – 8:00 PM",
      "day_2": "Wednesday: 11:00 AM – 8:00 PM",
      "day_3": "Thursday: 11:00 AM – 8:00 PM",
      "day_4": "Friday: 11:00 AM – 9:00 PM",
      "day_5": "Saturday: 11:00 AM – 9:00 PM",
      "day_6": "Sunday: 11:00 AM – 6:00 PM"
    },
    "website": "https://fatstraws.com/",
    "latitude": 32.9334484,
    "longitude": -96.81694189999999,
    "scraped_at": "2025-06-25T14:24:17.268831"
  },
  {
    "name": "In-N-Out Burger",
    "address": "15260 Dallas Pkwy, Dallas, TX 75248, USA",
    "postal_code": "75001",
    "phone": "(800) 786-1000",
    "rating": 4.5,
    "review_count": 4211,
    "cuisine_type": "Restaurante",
    "business_hours": {
      "day_0": "Monday: 10:30 AM – 1:00 AM",
      "day_1": "Tuesday: 10:30 AM – 1:00 AM",
      "day_2": "Wednesday: 10:30 AM – 1:00 AM",
      "day_3": "Thursday: 10:30 AM – 1:00 AM",
      "day_4": "Friday: 10:30 AM – 1:30 AM",
      "day_5": "Saturday: 10:30 AM – 1:30 AM",
      "day_6": "Sunday: 10:30 AM – 1:00 AM"
    },
    "website": "https://locations.in-n-out.com/268",
    "latitude": 32.9570648,
    "longitude": -96.8209297,
    "scraped_at": "2025-06-25T14:24:17.545937"
  },
  {
    "name": "The Londoner Addison",
    "address": "14930 Midway Rd, Addison, TX 75001, USA",
    "postal_code": "75001",
    "phone": "(972) 458-2444",
    "rating": 4.5,
    "review_count": 2675,
    "cuisine_type": "Restaurante",
    "business_hours": {
      "day_0": "Monday: 11:00 AM – 12:00 AM",
      "day_1": "Tuesday: 11:00 AM – 12:00 AM",
      "day_2": "Wednesday: 11:00 AM – 12:00 AM",
      "day_3": "Thursday: 11:00 AM – 12:00 AM",
      "day_4": "Friday: 11:00 AM – 2:00 AM",
      "day_5": "Saturday: 10:00 AM – 2:00 AM",
      "day_6": "Sunday: 10:00 AM – 12:00 AM"
    },
    "website": "https://thelondonerpub.com/",
    "latitude": 32.9523763,
    "longitude": -96.83839689999999,
    "scraped_at": "2025-06-25T14:24:17.970822"
  },
  {
    "name": "Carrabba's Italian Grill",
    "address": "17548 Dallas Pkwy, Dallas, TX 75287, USA",
    "postal_code": "75001",
    "phone": "(972) 732-7752",
    "rating": 4.4,
    "review_count": 1696,
    "cuisine_type": "Restaurante",
    "business_hours": {
      "day_0": "Monday: 11:00 AM – 10:00 PM",
      "day_1": "Tuesday: 11:00 AM – 10:00 PM",
      "day_2": "Wednesday: 11:00 AM – 10:00 PM",
      "day_3": "Thursday: 11:00 AM – 10:00 PM",
      "day_4": "Friday: 11:00 AM – 11:00 PM",
      "day_5": "Saturday: 11:00 AM – 11:00 PM",
      "day_6": "Sunday: 11:00 AM – 9:00 PM"
    },
    "website": "https://locations.carrabbas.com/texas/dallas/17548-dallas-pkwy?y_source=1_MTU1MDMwNjUtNzE1LWxvY2F0aW9uLndlYnNpdGU%3D",
    "latitude": 32.9898778,
    "longitude": -96.82802369999999,
    "scraped_at": "2025-06-25T14:24:18.295087"
  },
  {
    "name": "Chamberlain's Steak & Fish",
    "address": "5330 Belt Line Rd, Dallas, TX 75254, USA",
    "postal_code": "75001",
    "phone": "(972) 934-2467",
    "rating": 4.7,
    "review_count": 2295,
    "cuisine_type": "Restaurante",
    "business_hours": {
      "day_0": "Monday: 4:30 – 9:30 PM",
      "day_1": "Tuesday: 4:30 – 9:30 PM",
      "day_2": "Wednesday: 4:30 – 9:30 PM",
      "day_3": "Thursday: 4:30 – 9:30 PM",
      "day_4": "Friday: 4:30 – 10:00 PM",
      "day_5": "Saturday: 4:30 – 10:00 PM",
      "day_6": "Sunday: 4:30 – 9:00 PM"
    },
    "website": "https://www.chamberlainssteakhouse.com/",
    "latitude": 32.9537113,
    "longitude": -96.8147873,
    "scraped_at": "2025-06-25T14:24:18.541399"
  },
  {
    "name": "Melting Pot",
    "address": "4900 Belt Line Rd #200, Dallas, TX 75254, USA",
    "postal_code": "75001",
    "phone": "(972) 239-6358",
    "rating": 3.9,
    "review_count": 1309,
    "cuisine_type": "Restaurante",
    "business_hours": {
      "day_0": "Monday: 4:30 – 9:00 PM",
      "day_1": "Tuesday: 4:30 – 9:00 PM",
      "day_2": "Wednesday: 4:30 – 9:00 PM",
      "day_3": "Thursday: 4:30 – 9:00 PM",
      "day_4": "Friday: 4:30 – 10:00 PM",
      "day_5": "Saturday: 4:00 – 10:00 PM",
      "day_6": "Sunday: 3:00 – 9:00 PM"
    },
    "website": "https://www.meltingpot.com/dallas-addison-tx/",
    "latitude": 32.953572,
    "longitude": -96.8279818,
    "scraped_at": "2025-06-25T14:24:21.262816"
  },
  {
    "name": "Luciano Family Pizzeria",
    "address": "13350 Dallas Parkway, Galleria Dr #300, Dallas, TX 75240, USA",
    "postal_code": "75001",
    "phone": "(972) 239-2555",
    "rating": 3.9,
    "review_count": 366,
    "cuisine_type": "Restaurante",
    "business_hours": {
      "day_0": "Monday: 10:00 AM – 8:00 PM",
      "day_1": "Tuesday: 10:00 AM – 8:00 PM",
      "day_2": "Wednesday: 10:00 AM – 8:00 PM",
      "day_3": "Thursday: 10:00 AM – 8:00 PM",
      "day_4": "Friday: 10:00 AM – 8:00 PM",
      "day_5": "Saturday: 10:00 AM – 8:00 PM",
      "day_6": "Sunday: 11:00 AM – 6:00 PM"
    },
    "website": "https://lucianodallas.com/",
    "latitude": 32.9298703,
    "longitude": -96.8194694,
    "scraped_at": "2025-06-25T14:24:21.731153"
  },
  {
    "name": "Vindu Indian Cuisine",
    "address": "4701 Frankford Rd ste 237, Dallas, TX 75287, USA",
    "postal_code": "75001",
    "phone": "(972) 931-5999",
    "rating": 3.9,
    "review_count": 686,
    "cuisine_type": "Restaurante",
    "business_hours": {
      "day_0": "Monday: Closed",
      "day_1": "Tuesday: 11:30 AM – 2:30 PM, 5:00 – 9:30 PM",
      "day_2": "Wednesday: 11:30 AM – 2:30 PM, 5:00 – 9:30 PM",
      "day_3": "Thursday: 11:30 AM – 2:30 PM, 5:00 – 9:30 PM",
      "day_4": "Friday: 11:30 AM – 2:30 PM, 5:00 – 10:00 PM",
      "day_5": "Saturday: 11:30 AM – 3:00 PM, 5:00 – 10:00 PM",
      "day_6": "Sunday: 11:30 AM – 3:00 PM, 5:00 – 9:30 PM"
    },
    "website": "http://www.vindudallas.com/",
    "latitude": 32.9992312,
    "longitude": -96.8264665,
    "scraped_at": "2025-06-25T14:24:22.208426"
  },
  {
    "name": "Olive Garden Italian Restaurant",
    "address": "4240 Belt Line Rd, Addison, TX 75001, USA",
    "postal_code": "75001",
    "phone": "(972) 239-9096",
    "rating": 4.3,
    "review_count": 3814,
    "cuisine_type": "Restaurante",
    "business_hours": {
      "day_0": "Monday: 11:00 AM – 10:00 PM",
      "day_1": "Tuesday: 11:00 AM – 10:00 PM",
      "day_2": "Wednesday: 11:00 AM – 10:00 PM",
      "day_3": "Thursday: 11:00 AM – 10:00 PM",
      "day_4": "Friday: 11:00 AM – 11:00 PM",
      "day_5": "Saturday: 11:00 AM – 11:00 PM",
      "day_6": "Sunday: 11:00 AM – 10:00 PM"
    },
    "website": "https://www.olivegarden.com/locations/tx/addison/addison/1385?cmpid=br:og_ag:ie_ch:loc_ca:OGGMB_sn:gmb_gt:addison-tx-1385_pl:locurl_rd:1290",
    "latitude": 32.953932,
    "longitude": -96.83833000000001,
    "scraped_at": "2025-06-25T14:24:22.818735"
  },
  {
    "name": "Lin's Asian Buffet",
    "address": "2810 E Trinity Mls Rd Ste 122, Carrollton, TX 75006, USA",
    "postal_code": "75001",
    "phone": "(972) 418-8881",
    "rating": 4,
    "review_count": 2057,
    "cuisine_type": "Restaurante",
    "business_hours": {
      "day_0": "Monday: 11:00 AM – 9:30 PM",
      "day_1": "Tuesday: 11:00 AM – 9:30 PM",
      "day_2": "Wednesday: 11:00 AM – 9:30 PM",
      "day_3": "Thursday: 11:00 AM – 9:30 PM",
      "day_4": "Friday: 11:00 AM – 10:00 PM",
      "day_5": "Saturday: 11:00 AM – 10:00 PM",
      "day_6": "Sunday: 11:00 AM – 9:30 PM"
    },
    "website": "https://linsasianbuffet.shop/",
    "latitude": 32.9861662,
    "longitude": -96.8531279,
    "scraped_at": "2025-06-25T14:24:23.234886"
  },
  {
    "name": "Dunkin'",
    "address": "13535 Preston Rd, Dallas, TX 75240, USA",
    "postal_code": "75001",
    "phone": "(972) 239-1700",
    "rating": 3.6,
    "review_count": 1051,
    "cuisine_type": "Restaurante",
    "business_hours": {
      "day_0": "Monday: 4:30 AM – 9:00 PM",
      "day_1": "Tuesday: 4:30 AM – 9:00 PM",
      "day_2": "Wednesday: 4:30 AM – 9:00 PM",
      "day_3": "Thursday: 4:30 AM – 9:00 PM",
      "day_4": "Friday: 4:30 AM – 9:00 PM",
      "day_5": "Saturday: 4:30 AM – 9:00 PM",
      "day_6": "Sunday: 4:30 AM – 9:00 PM"
    },
    "website": "https://locations.dunkindonuts.com/en/tx/dallas/13535-preston-rd/345813?utm_source=google&utm_medium=local&utm_campaign=localmaps&utm_content=345813&y_source=1_MTIxMDgxNDktNzE1LWxvY2F0aW9uLndlYnNpdGU%3D",
    "latitude": 32.9322088,
    "longitude": -96.80403199999999,
    "scraped_at": "2025-06-25T14:24:23.688850"
  },
  {
    "name": "Subway",
    "address": "13350 Dallas Pkwy Suite 3690, Dallas, TX 75240, USA",
    "postal_code": "75001",
    "phone": "(972) 677-7021",
    "rating": 3.3,
    "review_count": 120,
    "cuisine_type": "Restaurante",
    "business_hours": {
      "day_0": "Monday: 10:00 AM – 8:00 PM",
      "day_1": "Tuesday: 10:00 AM – 8:00 PM",
      "day_2": "Wednesday: 10:00 AM – 8:00 PM",
      "day_3": "Thursday: 10:00 AM – 8:00 PM",
      "day_4": "Friday: 10:00 AM – 8:00 PM",
      "day_5": "Saturday: 10:00 AM – 8:00 PM",
      "day_6": "Sunday: 12:00 – 6:00 PM"
    },
    "website": "https://restaurants.subway.com/united-states/tx/dallas/13350-n-dallas-pkwy?utm_source=yxt-goog&utm_medium=local&utm_term=acq&utm_content=25299&utm_campaign=evergreen-2020&y_source=1_MTQ5MDE5MjQtNzE1LWxvY2F0aW9uLndlYnNpdGU=",
    "latitude": 32.9301365,
    "longitude": -96.8199016,
    "scraped_at": "2025-06-25T14:24:23.947897"
  },
  {
    "name": "Grand Lux Cafe",
    "address": "13420 Dallas Pkwy, Dallas, TX 75240, USA",
    "postal_code": "75001",
    "phone": "(972) 385-3114",
    "rating": 4.4,
    "review_count": 4897,
    "cuisine_type": "Restaurante",
    "business_hours": {
      "day_0": "Monday: 11:00 AM – 10:00 PM",
      "day_1": "Tuesday: 11:00 AM – 10:00 PM",
      "day_2": "Wednesday: 11:00 AM – 10:00 PM",
      "day_3": "Thursday: 11:00 AM – 10:00 PM",
      "day_4": "Friday: 11:00 AM – 11:00 PM",
      "day_5": "Saturday: 10:00 AM – 11:00 PM",
      "day_6": "Sunday: 10:00 AM – 10:00 PM"
    },
    "website": "https://locations.grandluxcafe.com/tx/dallas/4/?utm_source=Google&utm_medium=Maps&utm_campaign=Google+Places",
    "latitude": 32.9308617,
    "longitude": -96.8200404,
    "scraped_at": "2025-06-25T14:24:24.177740"
  },
  {
    "name": "Al-Amir Lebanese Restaurant & Club",
    "address": "3885 Belt Line Rd, Addison, TX 75001, USA",
    "postal_code": "75001",
    "phone": "(972) 488-2647",
    "rating": 3.9,
    "review_count": 2489,
    "cuisine_type": "Restaurante",
    "business_hours": {
      "day_0": "Monday: Closed",
      "day_1": "Tuesday: Closed",
      "day_2": "Wednesday: 5:00 – 10:00 PM",
      "day_3": "Thursday: 5:00 PM – 12:00 AM",
      "day_4": "Friday: 5:00 PM – 2:00 AM",
      "day_5": "Saturday: 5:00 PM – 2:00 AM",
      "day_6": "Sunday: 5:00 PM – 2:00 AM"
    },
    "website": "http://www.alamiraddison.com/",
    "latitude": 32.9536518,
    "longitude": -96.84981529999999,
    "scraped_at": "2025-06-25T14:24:24.502899"
  },
  {
    "name": "Table 13",
    "address": "4812 Belt Line Rd, Dallas, TX 75254, USA",
    "postal_code": "75001",
    "phone": "(972) 789-9558",
    "rating": 4.4,
    "review_count": 842,
    "cuisine_type": "Restaurante",
    "business_hours": {
      "day_0": "Monday: 11:00 AM – 10:00 PM",
      "day_1": "Tuesday: 11:00 AM – 10:00 PM",
      "day_2": "Wednesday: 11:00 AM – 10:00 PM",
      "day_3": "Thursday: 11:00 AM – 10:00 PM",
      "day_4": "Friday: 11:00 AM – 11:00 PM",
      "day_5": "Saturday: 5:00 – 11:00 PM",
      "day_6": "Sunday: Closed"
    },
    "website": "https://table13addison.com/",
    "latitude": 32.9537,
    "longitude": -96.82939999999999,
    "scraped_at": "2025-06-25T14:24:24.811336"
  },
  {
    "name": "Sushi Robata",
    "address": "4727 Frankford Rd #313, Dallas, TX 75287, USA",
    "postal_code": "75001",
    "phone": "(972) 930-9428",
    "rating": 4.5,
    "review_count": 971,
    "cuisine_type": "Restaurante",
    "business_hours": {
      "day_0": "Monday: 11:30 AM – 2:00 PM, 5:30 – 10:30 PM",
      "day_1": "Tuesday: 11:30 AM – 2:00 PM, 5:30 – 10:30 PM",
      "day_2": "Wednesday: 11:30 AM – 2:00 PM, 5:30 – 10:30 PM",
      "day_3": "Thursday: 11:30 AM – 2:00 PM, 5:30 – 10:30 PM",
      "day_4": "Friday: 11:30 AM – 2:00 PM, 5:30 – 10:30 PM",
      "day_5": "Saturday: 5:30 – 10:30 PM",
      "day_6": "Sunday: 5:30 – 10:00 PM"
    },
    "website": "http://www.sushirobata.com/",
    "latitude": 32.9993037,
    "longitude": -96.8262601,
    "scraped_at": "2025-06-25T14:24:25.312397"
  },
  {
    "name": "Twin Peaks",
    "address": "5260 Belt Line Rd, Dallas, TX 75254, USA",
    "postal_code": "75001",
    "phone": "(972) 503-7325",
    "rating": 4.5,
    "review_count": 4898,
    "cuisine_type": "Restaurante",
    "business_hours": {
      "day_0": "Monday: 11:00 AM – 12:00 AM",
      "day_1": "Tuesday: 11:00 AM – 12:00 AM",
      "day_2": "Wednesday: 11:00 AM – 12:00 AM",
      "day_3": "Thursday: 11:00 AM – 12:00 AM",
      "day_4": "Friday: 11:00 AM – 2:00 AM",
      "day_5": "Saturday: 11:00 AM – 2:00 AM",
      "day_6": "Sunday: 11:00 AM – 12:00 AM"
    },
    "website": "https://twinpeaksrestaurant.com/locations/addison-tx",
    "latitude": 32.9535832,
    "longitude": -96.8193775,
    "scraped_at": "2025-06-25T14:24:25.710882"
  },
  {
    "name": "Mi Cocina",
    "address": "13350 Dallas Pkwy #100, Dallas, TX 75240, USA",
    "postal_code": "75001",
    "phone": "(972) 239-6426",
    "rating": 4.8,
    "review_count": 2681,
    "cuisine_type": "Restaurante",
    "business_hours": {
      "day_0": "Monday: 10:00 AM – 8:30 PM",
      "day_1": "Tuesday: 10:00 AM – 8:30 PM",
      "day_2": "Wednesday: 10:00 AM – 8:30 PM",
      "day_3": "Thursday: 10:00 AM – 8:30 PM",
      "day_4": "Friday: 10:00 AM – 9:00 PM",
      "day_5": "Saturday: 10:00 AM – 9:00 PM",
      "day_6": "Sunday: 12:00 – 6:00 PM"
    },
    "website": "https://www.micocina.com/mexican-restaurants/tx/dallas/galleria-mall/?utm_source=GMB&utm_medium=organic&utm_campaign=Galleria",
    "latitude": 32.929809,
    "longitude": -96.81988059999999,
    "scraped_at": "2025-06-25T14:24:26.336844"
  },
  {
    "name": "Kenny's Italian Kitchen",
    "address": "5100 Belt Line Rd #764, Dallas, TX 75254, USA",
    "postal_code": "75001",
    "phone": "(972) 661-9380",
    "rating": 4.7,
    "review_count": 2436,
    "cuisine_type": "Restaurante",
    "business_hours": {
      "day_0": "Monday: 11:00 AM – 10:00 PM",
      "day_1": "Tuesday: 11:00 AM – 10:00 PM",
      "day_2": "Wednesday: 11:00 AM – 10:00 PM",
      "day_3": "Thursday: 11:00 AM – 10:00 PM",
      "day_4": "Friday: 11:00 AM – 10:00 PM",
      "day_5": "Saturday: 4:00 – 10:00 PM",
      "day_6": "Sunday: 4:00 – 10:00 PM"
    },
    "website": "http://kennysitalian.com/",
    "latitude": 32.9522166,
    "longitude": -96.8196442,
    "scraped_at": "2025-06-25T14:24:26.759612"
  },
  {
    "name": "Mughlai Fine Indian Cuisine",
    "address": "5301 Alpha Rd UNIT 14, Dallas, TX 75240, USA",
    "postal_code": "75001",
    "phone": "(972) 392-7786",
    "rating": 3.9,
    "review_count": 1324,
    "cuisine_type": "Restaurante",
    "business_hours": {
      "day_0": "Monday: Closed",
      "day_1": "Tuesday: 10:45 AM – 2:00 PM, 4:30 – 9:30 PM",
      "day_2": "Wednesday: 10:45 AM – 2:00 PM, 4:30 – 9:30 PM",
      "day_3": "Thursday: 10:45 AM – 2:00 PM, 4:30 – 9:30 PM",
      "day_4": "Friday: 10:45 AM – 2:00 PM, 4:30 – 10:00 PM",
      "day_5": "Saturday: 11:30 AM – 2:30 PM, 4:30 – 10:00 PM",
      "day_6": "Sunday: 11:30 AM – 2:30 PM, 4:30 – 9:30 PM"
    },
    "website": "http://www.mughlaidfw.com/",
    "latitude": 32.9332935,
    "longitude": -96.8172862,
    "scraped_at": "2025-06-25T14:24:27.069941"
  },
  {
    "name": "Genghis Grill",
    "address": "4201 Belt Line Rd, Addison, TX 75001, USA",
    "postal_code": "75001",
    "phone": "(972) 503-5426",
    "rating": 4.1,
    "review_count": 2026,
    "cuisine_type": "Restaurante",
    "business_hours": {
      "day_0": "Monday: 11:00 AM – 9:00 PM",
      "day_1": "Tuesday: 11:00 AM – 9:00 PM",
      "day_2": "Wednesday: 11:00 AM – 9:00 PM",
      "day_3": "Thursday: 11:00 AM – 9:00 PM",
      "day_4": "Friday: 11:00 AM – 10:00 PM",
      "day_5": "Saturday: 11:00 AM – 10:00 PM",
      "day_6": "Sunday: 11:00 AM – 9:00 PM"
    },
    "website": "https://locations.genghisgrill.com/tx/addison/genghis-grill-1001.html",
    "latitude": 32.9549181,
    "longitude": -96.8384519,
    "scraped_at": "2025-06-25T14:24:27.687332"
  },
  {
    "name": "Banana Leaf Thai Cuisine",
    "address": "17370 Preston Rd #500, Dallas, TX 75252, USA",
    "postal_code": "75001",
    "phone": "(972) 713-0123",
    "rating": 4.6,
    "review_count": 1668,
    "cuisine_type": "Restaurante",
    "business_hours": {
      "day_0": "Monday: Closed",
      "day_1": "Tuesday: 11:00 AM – 8:00 PM",
      "day_2": "Wednesday: 11:00 AM – 8:00 PM",
      "day_3": "Thursday: 11:00 AM – 8:00 PM",
      "day_4": "Friday: 11:00 AM – 9:00 PM",
      "day_5": "Saturday: 11:30 AM – 9:00 PM",
      "day_6": "Sunday: 11:30 AM – 8:00 PM"
    },
    "website": "http://www.thaibananaleaf.com/",
    "latitude": 32.9889644,
    "longitude": -96.80179509999999,
    "scraped_at": "2025-06-25T14:24:28.255076"
  },
  {
    "name": "The Hideaway",
    "address": "14902 Preston Rd, Dallas, TX 75254, USA",
    "postal_code": "75001",
    "phone": null,
    "rating": 4.2,
    "review_count": 1387,
    "cuisine_type": "Restaurante",
    "business_hours": {
      "day_0": "Monday: 11:00 AM – 2:00 AM",
      "day_1": "Tuesday: 11:00 AM – 2:00 AM",
      "day_2": "Wednesday: 11:00 AM – 2:00 AM",
      "day_3": "Thursday: 11:00 AM – 2:00 AM",
      "day_4": "Friday: 11:00 AM – 2:00 AM",
      "day_5": "Saturday: 11:00 AM – 2:00 AM",
      "day_6": "Sunday: 11:00 AM – 2:00 AM"
    },
    "website": "http://myhideawaydallas.com/",
    "latitude": 32.9530562,
    "longitude": -96.8029071,
    "scraped_at": "2025-06-25T14:24:28.810330"
  },
  {
    "name": "Starbucks",
    "address": "5000 Belt Line Road Addison Walk, Dallas, TX 75240, USA",
    "postal_code": "75001",
    "phone": "(972) 866-6789",
    "rating": 4.1,
    "review_count": 609,
    "cuisine_type": "Restaurante",
    "business_hours": {
      "day_0": "Monday: 4:30 AM – 9:30 PM",
      "day_1": "Tuesday: 4:30 AM – 9:30 PM",
      "day_2": "Wednesday: 4:30 AM – 9:30 PM",
      "day_3": "Thursday: 4:30 AM – 9:30 PM",
      "day_4": "Friday: 4:30 AM – 9:30 PM",
      "day_5": "Saturday: 5:00 AM – 9:30 PM",
      "day_6": "Sunday: 5:00 AM – 9:30 PM"
    },
    "website": "https://www.starbucks.com/store-locator/store/9179/",
    "latitude": 32.9534677,
    "longitude": -96.8244919,
    "scraped_at": "2025-06-25T14:24:29.391231"
  },
  {
    "name": "Starbucks",
    "address": "15099 Midway Rd, Addison, TX 75001, USA",
    "postal_code": "75001",
    "phone": "(972) 385-8416",
    "rating": 4.1,
    "review_count": 1260,
    "cuisine_type": "Restaurante",
    "business_hours": {
      "day_0": "Monday: 5:00 AM – 9:30 PM",
      "day_1": "Tuesday: 5:00 AM – 9:30 PM",
      "day_2": "Wednesday: 5:00 AM – 9:30 PM",
      "day_3": "Thursday: 5:00 AM – 9:30 PM",
      "day_4": "Friday: 4:30 AM – 9:30 PM",
      "day_5": "Saturday: 4:30 AM – 9:30 PM",
      "day_6": "Sunday: 5:00 AM – 9:30 PM"
    },
    "website": "https://www.starbucks.com/store-locator/store/7984/",
    "latitude": 32.9539468,
    "longitude": -96.8393576,
    "scraped_at": "2025-06-25T14:24:29.770906"
  },
  {
    "name": "Nate's Seafood & Steakhouse",
    "address": "14951 Midway Rd, Addison, TX 75001, USA",
    "postal_code": "75001",
    "phone": "(972) 701-9622",
    "rating": 4.4,
    "review_count": 4769,
    "cuisine_type": "Restaurante",
    "business_hours": {
      "day_0": "Monday: 11:00 AM – 10:00 PM",
      "day_1": "Tuesday: 11:00 AM – 10:00 PM",
      "day_2": "Wednesday: 11:00 AM – 10:00 PM",
      "day_3": "Thursday: 11:00 AM – 11:00 PM",
      "day_4": "Friday: 11:00 AM – 11:00 PM",
      "day_5": "Saturday: 11:00 AM – 11:00 PM",
      "day_6": "Sunday: 11:00 AM – 11:00 PM"
    },
    "website": "https://www.natesseafood.com/",
    "latitude": 32.9534668,
    "longitude": -96.8393016,
    "scraped_at": "2025-06-25T14:24:32.296978"
  },
  {
    "name": "Subway",
    "address": "3751 Belt Line Rd, Addison, TX 75001, USA",
    "postal_code": "75001",
    "phone": "(972) 620-1220",
    "rating": 3.3,
    "review_count": 271,
    "cuisine_type": "Restaurante",
    "business_hours": {
      "day_0": "Monday: 9:00 AM – 10:00 PM",
      "day_1": "Tuesday: 9:00 AM – 10:00 PM",
      "day_2": "Wednesday: 9:00 AM – 10:00 PM",
      "day_3": "Thursday: 9:00 AM – 10:00 PM",
      "day_4": "Friday: 9:00 AM – 10:00 PM",
      "day_5": "Saturday: 9:00 AM – 10:00 PM",
      "day_6": "Sunday: 9:00 AM – 10:00 PM"
    },
    "website": "https://restaurants.subway.com/united-states/tx/addison/3751-beltline-rd?utm_source=yxt-goog&utm_medium=local&utm_term=acq&utm_content=10219&utm_campaign=evergreen-2020&y_source=1_MTQ4OTM3NDMtNzE1LWxvY2F0aW9uLndlYnNpdGU%3D",
    "latitude": 32.9537117,
    "longitude": -96.8535194,
    "scraped_at": "2025-06-25T14:24:32.679322"
  },
  {
    "name": "Best Thai Signature - Addison",
    "address": "4135 Belt Line Rd #112, Dallas, TX 75201, USA",
    "postal_code": "75001",
    "phone": "(972) 386-3353",
    "rating": 4.3,
    "review_count": 1238,
    "cuisine_type": "Restaurante",
    "business_hours": {
      "day_0": "Monday: 11:00 AM – 9:30 PM",
      "day_1": "Tuesday: 11:00 AM – 9:30 PM",
      "day_2": "Wednesday: 11:00 AM – 9:30 PM",
      "day_3": "Thursday: 11:00 AM – 9:30 PM",
      "day_4": "Friday: 11:00 AM – 9:45 PM",
      "day_5": "Saturday: 11:00 AM – 9:45 PM",
      "day_6": "Sunday: 11:00 AM – 9:30 PM"
    },
    "website": "http://www.bestthaidallas.com/",
    "latitude": 32.95489,
    "longitude": -96.84138,
    "scraped_at": "2025-06-25T14:24:32.914880"
  },
  {
    "name": "La Hacienda Ranch",
    "address": "17390 Preston Rd #100, Dallas, TX 75252, USA",
    "postal_code": "75001",
    "phone": "(972) 248-2424",
    "rating": 4.5,
    "review_count": 1968,
    "cuisine_type": "Restaurante",
    "business_hours": {
      "day_0": "Monday: Closed",
      "day_1": "Tuesday: Closed",
      "day_2": "Wednesday: 11:00 AM – 9:00 PM",
      "day_3": "Thursday: 11:00 AM – 9:00 PM",
      "day_4": "Friday: 11:00 AM – 10:00 PM",
      "day_5": "Saturday: 11:00 AM – 10:00 PM",
      "day_6": "Sunday: 11:00 AM – 9:00 PM"
    },
    "website": "http://www.laharanch.com/",
    "latitude": 32.9897383,
    "longitude": -96.8014707,
    "scraped_at": "2025-06-25T14:24:33.487905"
  },
  {
    "name": "McAlister's Deli",
    "address": "15212 Montfort Dr Suite 303, Dallas, TX 75248, USA",
    "postal_code": "75001",
    "phone": "(469) 374-0495",
    "rating": 4.3,
    "review_count": 806,
    "cuisine_type": "Restaurante",
    "business_hours": {
      "day_0": "Monday: 10:00 AM – 9:00 PM",
      "day_1": "Tuesday: 10:00 AM – 9:00 PM",
      "day_2": "Wednesday: 10:00 AM – 9:00 PM",
      "day_3": "Thursday: 10:00 AM – 9:00 PM",
      "day_4": "Friday: 10:00 AM – 9:00 PM",
      "day_5": "Saturday: 10:00 AM – 9:00 PM",
      "day_6": "Sunday: 10:00 AM – 9:00 PM"
    },
    "website": "https://locations.mcalistersdeli.com/tx/dallas/15212-monfort-dr.?utm_source=google&utm_medium=organic&utm_campaign=locations_partner",
    "latitude": 32.9568771,
    "longitude": -96.81798619999999,
    "scraped_at": "2025-06-25T14:24:33.860150"
  },
  {
    "name": "Subway",
    "address": "2810 E Trinity Mls Rd Apt 101, Carrollton, TX 75006, USA",
    "postal_code": "75001",
    "phone": "(972) 416-4774",
    "rating": 2.5,
    "review_count": 367,
    "cuisine_type": "Restaurante",
    "business_hours": {
      "day_0": "Monday: 9:00 AM – 10:00 PM",
      "day_1": "Tuesday: 9:00 AM – 10:00 PM",
      "day_2": "Wednesday: 9:00 AM – 10:00 PM",
      "day_3": "Thursday: 9:00 AM – 10:00 PM",
      "day_4": "Friday: 9:00 AM – 10:00 PM",
      "day_5": "Saturday: 9:00 AM – 10:00 PM",
      "day_6": "Sunday: 9:00 AM – 10:00 PM"
    },
    "website": "https://restaurants.subway.com/united-states/tx/carrollton/2810-e-trinity-mills-rd?utm_source=yxt-goog&utm_medium=local&utm_term=acq&utm_content=6219&utm_campaign=evergreen-2020&y_source=1_MTQ5MTA2NDMtNzE1LWxvY2F0aW9uLndlYnNpdGU%3D",
    "latitude": 32.9866637,
    "longitude": -96.8530918,
    "scraped_at": "2025-06-25T14:24:34.258951"
  },
  {
    "name": "Paradise Bakery & Cafe - Alpha & Tollway",
    "address": "13710 Dallas Pkwy, Dallas, TX 75240, USA",
    "postal_code": "75001",
    "phone": "(972) 503-1800",
    "rating": 4.1,
    "review_count": 1008,
    "cuisine_type": "Restaurante",
    "business_hours": {
      "day_0": "Monday: 6:00 AM – 9:00 PM",
      "day_1": "Tuesday: 6:00 AM – 9:00 PM",
      "day_2": "Wednesday: 6:00 AM – 9:00 PM",
      "day_3": "Thursday: 6:00 AM – 9:00 PM",
      "day_4": "Friday: 6:00 AM – 9:00 PM",
      "day_5": "Saturday: 7:00 AM – 9:00 PM",
      "day_6": "Sunday: 8:00 AM – 8:00 PM"
    },
    "website": null,
    "latitude": 32.9332919,
    "longitude": -96.8208918,
    "scraped_at": "2025-06-25T14:24:34.859157"
  },
  {
    "name": "Chipotle Mexican Grill",
    "address": "3771 Belt Line Rd, Addison, TX 75001, USA",
    "postal_code": "75001",
    "phone": "(972) 243-9088",
    "rating": 3.8,
    "review_count": 1175,
    "cuisine_type": "Restaurante",
    "business_hours": {
      "day_0": "Monday: 10:45 AM – 11:00 PM",
      "day_1": "Tuesday: 10:45 AM – 11:00 PM",
      "day_2": "Wednesday: 10:45 AM – 11:00 PM",
      "day_3": "Thursday: 10:45 AM – 11:00 PM",
      "day_4": "Friday: 10:45 AM – 11:00 PM",
      "day_5": "Saturday: 10:45 AM – 11:00 PM",
      "day_6": "Sunday: 10:45 AM – 11:00 PM"
    },
    "website": "https://locations.chipotle.com/tx/addison/3771-belt-line-rd?utm_source=google&utm_medium=yext&utm_campaign=yext_listings",
    "latitude": 32.9536677,
    "longitude": -96.85307689999999,
    "scraped_at": "2025-06-25T14:24:35.441338"
  },
  {
    "name": "Jimmy John's",
    "address": "4980 Belt Line Rd #150, Dallas, TX 75254, USA",
    "postal_code": "75001",
    "phone": "(972) 392-1600",
    "rating": 3.3,
    "review_count": 335,
    "cuisine_type": "Restaurante",
    "business_hours": {
      "day_0": "Monday: 10:00 AM – 10:00 PM",
      "day_1": "Tuesday: 10:00 AM – 10:00 PM",
      "day_2": "Wednesday: 10:00 AM – 10:00 PM",
      "day_3": "Thursday: 10:00 AM – 10:00 PM",
      "day_4": "Friday: 10:00 AM – 10:00 PM",
      "day_5": "Saturday: 10:00 AM – 10:00 PM",
      "day_6": "Sunday: 10:00 AM – 10:00 PM"
    },
    "website": "https://locations.jimmyjohns.com/tx/addison/sandwiches-506.html?utm_source=google%20my%20business&utm_medium=organic&utm_campaign=website%20link",
    "latitude": 32.9537491,
    "longitude": -96.82660519999999,
    "scraped_at": "2025-06-25T14:24:35.737331"
  },
  {
    "name": "Panda Express",
    "address": "13350 Dallas Pkwy SUITE 915, Dallas, TX 75240, USA",
    "postal_code": "75001",
    "phone": "(972) 490-6338",
    "rating": 3.6,
    "review_count": 239,
    "cuisine_type": "Restaurante",
    "business_hours": {
      "day_0": "Monday: 10:30 AM – 8:00 PM",
      "day_1": "Tuesday: 10:30 AM – 8:00 PM",
      "day_2": "Wednesday: 10:30 AM – 8:00 PM",
      "day_3": "Thursday: 10:30 AM – 8:00 PM",
      "day_4": "Friday: 10:30 AM – 8:00 PM",
      "day_5": "Saturday: 10:30 AM – 8:00 PM",
      "day_6": "Sunday: 12:00 – 6:00 PM"
    },
    "website": "https://www.pandaexpress.com/locations/tx/dallas/1819",
    "latitude": 32.9302054,
    "longitude": -96.819436,
    "scraped_at": "2025-06-25T14:24:35.965317"
  },
  {
    "name": "Starbucks",
    "address": "5223 Alpha Road, Galleria Rd, Dallas, TX 75240, USA",
    "postal_code": "75001",
    "phone": "(972) 960-9595",
    "rating": 4.4,
    "review_count": 621,
    "cuisine_type": "Restaurante",
    "business_hours": {
      "day_0": "Monday: 5:00 AM – 7:00 PM",
      "day_1": "Tuesday: 5:00 AM – 7:00 PM",
      "day_2": "Wednesday: 5:00 AM – 7:00 PM",
      "day_3": "Thursday: 5:00 AM – 7:00 PM",
      "day_4": "Friday: 5:00 AM – 8:00 PM",
      "day_5": "Saturday: 6:00 AM – 8:00 PM",
      "day_6": "Sunday: 6:00 AM – 7:30 PM"
    },
    "website": "https://www.starbucks.com/store-locator/store/16779/",
    "latitude": 32.9332943,
    "longitude": -96.8189517,
    "scraped_at": "2025-06-25T14:24:36.340031"
  },
  {
    "name": "Panda Express",
    "address": "17602 Midway Rd, Dallas, TX 75287, USA",
    "postal_code": "75001",
    "phone": "(972) 267-3132",
    "rating": 3.7,
    "review_count": 946,
    "cuisine_type": "Restaurante",
    "business_hours": {
      "day_0": "Monday: 10:00 AM – 10:30 PM",
      "day_1": "Tuesday: 10:00 AM – 10:30 PM",
      "day_2": "Wednesday: 10:00 AM – 10:30 PM",
      "day_3": "Thursday: 10:00 AM – 10:30 PM",
      "day_4": "Friday: 10:00 AM – 10:30 PM",
      "day_5": "Saturday: 10:00 AM – 10:30 PM",
      "day_6": "Sunday: 10:00 AM – 10:30 PM"
    },
    "website": "https://www.pandaexpress.com/locations/tx/dallas/629",
    "latitude": 32.9876249,
    "longitude": -96.8417357,
    "scraped_at": "2025-06-25T14:24:36.666838"
  },
  {
    "name": "Saltgrass Steak House",
    "address": "4101 Lyndon B Johnson Fwy, Dallas, TX 75244, USA",
    "postal_code": "75001",
    "phone": "(972) 243-9440",
    "rating": 4.3,
    "review_count": 2641,
    "cuisine_type": "Restaurante",
    "business_hours": {
      "day_0": "Monday: 11:00 AM – 9:30 PM",
      "day_1": "Tuesday: 11:00 AM – 9:30 PM",
      "day_2": "Wednesday: 11:00 AM – 9:30 PM",
      "day_3": "Thursday: 11:00 AM – 9:30 PM",
      "day_4": "Friday: 11:00 AM – 10:00 PM",
      "day_5": "Saturday: 11:00 AM – 10:00 PM",
      "day_6": "Sunday: 11:00 AM – 9:30 PM"
    },
    "website": "https://www.saltgrass.com/location/saltgrass-midway-dallas-lbj-frwy/",
    "latitude": 32.9245965,
    "longitude": -96.8425606,
    "scraped_at": "2025-06-25T14:24:37.220655"
  },
  {
    "name": "Deli News N.Y. Style Deli Restaurant",
    "address": "17062 Preston Rd STE 100, Dallas, TX 75248, USA",
    "postal_code": "75001",
    "phone": "(972) 733-3354",
    "rating": 4.6,
    "review_count": 1367,
    "cuisine_type": "Restaurante",
    "business_hours": {
      "day_0": "Monday: 7:00 AM – 3:00 PM",
      "day_1": "Tuesday: 7:00 AM – 7:00 PM",
      "day_2": "Wednesday: 7:00 AM – 7:00 PM",
      "day_3": "Thursday: 7:00 AM – 7:00 PM",
      "day_4": "Friday: 7:00 AM – 7:00 PM",
      "day_5": "Saturday: 7:00 AM – 3:00 PM",
      "day_6": "Sunday: 7:00 AM – 3:00 PM"
    },
    "website": null,
    "latitude": 32.9830598,
    "longitude": -96.8032442,
    "scraped_at": "2025-06-25T14:24:37.558887"
  },
  {
    "name": "I Luv Pho",
    "address": "14902 Preston Rd Suite 512B, Dallas, TX 75254, USA",
    "postal_code": "75001",
    "phone": "(972) 387-4545",
    "rating": 4.4,
    "review_count": 282,
    "cuisine_type": "Restaurante",
    "business_hours": {
      "day_0": "Monday: 11:00 AM – 9:00 PM",
      "day_1": "Tuesday: 11:00 AM – 9:00 PM",
      "day_2": "Wednesday: 11:00 AM – 9:00 PM",
      "day_3": "Thursday: 11:00 AM – 9:00 PM",
      "day_4": "Friday: 11:00 AM – 9:00 PM",
      "day_5": "Saturday: 11:00 AM – 9:00 PM",
      "day_6": "Sunday: Closed"
    },
    "website": "http://iluvphopreston.com/",
    "latitude": 32.951196,
    "longitude": -96.803004,
    "scraped_at": "2025-06-25T14:24:37.816997"
  },
  {
    "name": "The Original Pancake House",
    "address": "5220 Belt Line Rd, Dallas, TX 75254, USA",
    "postal_code": "75001",
    "phone": "(972) 385-6468",
    "rating": 4.4,
    "review_count": 3056,
    "cuisine_type": "Restaurante",
    "business_hours": {
      "day_0": "Monday: 6:30 AM – 2:00 PM",
      "day_1": "Tuesday: 6:30 AM – 2:00 PM",
      "day_2": "Wednesday: 6:30 AM – 2:00 PM",
      "day_3": "Thursday: 6:30 AM – 2:00 PM",
      "day_4": "Friday: 6:30 AM – 2:00 PM",
      "day_5": "Saturday: 7:00 AM – 3:00 PM",
      "day_6": "Sunday: 7:00 AM – 3:00 PM"
    },
    "website": "https://ophdfw.com/addison-location/?utm_source=google&utm_medium=organic&utm_campaign=mybusiness",
    "latitude": 32.953627,
    "longitude": -96.8197805,
    "scraped_at": "2025-06-25T14:24:38.136072"
  },
  {
    "name": "Chipotle Mexican Grill",
    "address": "5290 Belt Line Rd, Dallas, TX 75254, USA",
    "postal_code": "75001",
    "phone": "(972) 934-8580",
    "rating": 3.5,
    "review_count": 1124,
    "cuisine_type": "Restaurante",
    "business_hours": {
      "day_0": "Monday: 10:45 AM – 11:00 PM",
      "day_1": "Tuesday: 10:45 AM – 11:00 PM",
      "day_2": "Wednesday: 10:45 AM – 11:00 PM",
      "day_3": "Thursday: 10:45 AM – 11:00 PM",
      "day_4": "Friday: 10:45 AM – 11:00 PM",
      "day_5": "Saturday: 10:45 AM – 11:00 PM",
      "day_6": "Sunday: 10:45 AM – 11:00 PM"
    },
    "website": "https://locations.chipotle.com/tx/dallas/5290-belt-line-rd?utm_source=google&utm_medium=yext&utm_campaign=yext_listings",
    "latitude": 32.9536535,
    "longitude": -96.8178567,
    "scraped_at": "2025-06-25T14:24:38.721946"
  },
  {
    "name": "Antonio Ristorante",
    "address": "4985 Addison Cir, Addison, TX 75001, USA",
    "postal_code": "75001",
    "phone": "(972) 458-1010",
    "rating": 4.3,
    "review_count": 312,
    "cuisine_type": "Restaurante",
    "business_hours": {
      "day_0": "Monday: 5:00 – 9:30 PM",
      "day_1": "Tuesday: 5:00 – 9:30 PM",
      "day_2": "Wednesday: 5:00 – 9:30 PM",
      "day_3": "Thursday: 5:00 – 9:30 PM",
      "day_4": "Friday: 5:00 – 10:30 PM",
      "day_5": "Saturday: 5:00 – 10:30 PM",
      "day_6": "Sunday: 5:00 – 9:30 PM"
    },
    "website": "https://www.antonioristorante.com/",
    "latitude": 32.9616162,
    "longitude": -96.82638399999999,
    "scraped_at": "2025-06-25T14:24:39.075280"
  },
  {
    "name": "Pei Wei Asian Kitchen",
    "address": "4801 Belt Line Rd, Addison, TX 75254, USA",
    "postal_code": "75001",
    "phone": "(972) 764-0844",
    "rating": 3.9,
    "review_count": 1007,
    "cuisine_type": "Restaurante",
    "business_hours": {
      "day_0": "Monday: 11:00 AM – 9:00 PM",
      "day_1": "Tuesday: 11:00 AM – 9:00 PM",
      "day_2": "Wednesday: 11:00 AM – 9:00 PM",
      "day_3": "Thursday: 11:00 AM – 9:00 PM",
      "day_4": "Friday: 11:00 AM – 9:00 PM",
      "day_5": "Saturday: 11:00 AM – 9:00 PM",
      "day_6": "Sunday: 11:00 AM – 9:00 PM"
    },
    "website": "https://www.peiwei.com/texas/60-addison",
    "latitude": 32.9547074,
    "longitude": -96.82941939999999,
    "scraped_at": "2025-06-25T14:24:39.502323"
  },
  {
    "name": "Best Thai Signature - Dallas (Frankford Rd)",
    "address": "18352 Dallas Pkwy #112, Dallas, TX 75287, USA",
    "postal_code": "75001",
    "phone": "(972) 930-9973",
    "rating": 4.4,
    "review_count": 560,
    "cuisine_type": "Restaurante",
    "business_hours": {
      "day_0": "Monday: 11:00 AM – 9:30 PM",
      "day_1": "Tuesday: 11:00 AM – 9:30 PM",
      "day_2": "Wednesday: 11:00 AM – 9:30 PM",
      "day_3": "Thursday: 11:00 AM – 9:30 PM",
      "day_4": "Friday: 11:00 AM – 9:30 PM",
      "day_5": "Saturday: 11:00 AM – 10:00 PM",
      "day_6": "Sunday: 11:00 AM – 10:00 PM"
    },
    "website": "https://www.bestthaidallas.com/",
    "latitude": 32.999446,
    "longitude": -96.82824699999999,
    "scraped_at": "2025-06-25T14:24:39.966234"
  },
  {
    "name": "The Athenaeum Hotel & Residences",
    "address": "116 Piccadilly, London W1J 7BJ, UK",
    "postal_code": "SW1A 1AA",
    "phone": "020 7499 3464",
    "rating": 4.4,
    "review_count": 1304,
    "cuisine_type": "Restaurante",
    "business_hours": {
      "day_0": "Monday: Open 24 hours",
      "day_1": "Tuesday: Open 24 hours",
      "day_2": "Wednesday: Open 24 hours",
      "day_3": "Thursday: Open 24 hours",
      "day_4": "Friday: Open 24 hours",
      "day_5": "Saturday: Open 24 hours",
      "day_6": "Sunday: Open 24 hours"
    },
    "website": "https://www.athenaeumhotel.com/",
    "latitude": 51.50470439999999,
    "longitude": -0.1475848,
    "scraped_at": "2025-06-25T14:24:41.051642"
  },
  {
    "name": "The Clermont London, Victoria",
    "address": "101 Buckingham Palace Rd, London SW1W 0SJ, UK",
    "postal_code": "SW1A 1AA",
    "phone": "020 7523 5055",
    "rating": 4.2,
    "review_count": 2720,
    "cuisine_type": "Restaurante",
    "business_hours": {
      "day_0": "Monday: Open 24 hours",
      "day_1": "Tuesday: Open 24 hours",
      "day_2": "Wednesday: Open 24 hours",
      "day_3": "Thursday: Open 24 hours",
      "day_4": "Friday: Open 24 hours",
      "day_5": "Saturday: Open 24 hours",
      "day_6": "Sunday: Open 24 hours"
    },
    "website": "https://www.theclermont.co.uk/victoria?utm_source=google&utm_medium=organic&utm_campaign=gmb_website_click",
    "latitude": 51.495691,
    "longitude": -0.1453499,
    "scraped_at": "2025-06-25T14:24:41.544982"
  },
  {
    "name": "Premier Inn London Victoria hotel",
    "address": "Off 55, 82 - 83 Eccleston Square, Gillingham St, Pimlico, London SW1V 1PS, UK",
    "postal_code": "SW1A 1AA",
    "phone": null,
    "rating": 4.1,
    "review_count": 1479,
    "cuisine_type": "Restaurante",
    "business_hours": null,
    "website": "https://www.premierinn.com/gb/en/hotels/england/greater-london/london/london-victoria.html?cid=GLBC_LKEBAR",
    "latitude": 51.49302309999999,
    "longitude": -0.1429586,
    "scraped_at": "2025-06-25T14:24:41.960929"
  },
  {
    "name": "The Royal Horseguards Hotel & One Whitehall Place, London",
    "address": "2 Whitehall Ct, London SW1A 2EJ, UK",
    "postal_code": "SW1A 1AA",
    "phone": "020 7523 5062",
    "rating": 4.4,
    "review_count": 2899,
    "cuisine_type": "Restaurante",
    "business_hours": {
      "day_0": "Monday: Open 24 hours",
      "day_1": "Tuesday: Open 24 hours",
      "day_2": "Wednesday: Open 24 hours",
      "day_3": "Thursday: Open 24 hours",
      "day_4": "Friday: Open 24 hours",
      "day_5": "Saturday: Open 24 hours",
      "day_6": "Sunday: Open 24 hours"
    },
    "website": "https://www.royalhorseguardshotel.com/?utm_source=google&utm_medium=organic&utm_campaign=gmb_website_click",
    "latitude": 51.5060478,
    "longitude": -0.1241368,
    "scraped_at": "2025-06-25T14:24:42.359321"
  },
  {
    "name": "Claridge's",
    "address": "Brook St, London W1K 4HR, UK",
    "postal_code": "SW1A 1AA",
    "phone": "020 7629 8860",
    "rating": 4.7,
    "review_count": 3813,
    "cuisine_type": "Restaurante",
    "business_hours": {
      "day_0": "Monday: Open 24 hours",
      "day_1": "Tuesday: Open 24 hours",
      "day_2": "Wednesday: Open 24 hours",
      "day_3": "Thursday: Open 24 hours",
      "day_4": "Friday: Open 24 hours",
      "day_5": "Saturday: Open 24 hours",
      "day_6": "Sunday: Open 24 hours"
    },
    "website": "https://www.claridges.co.uk/?utm_source=google&utm_medium=organic&utm_campaign=local",
    "latitude": 51.5124212,
    "longitude": -0.1478613,
    "scraped_at": "2025-06-25T14:24:42.887230"
  },
  {
    "name": "Premier Inn London Leicester Square hotel",
    "address": "Queens House, 1 Leicester Square, London WC2H 7BP, UK",
    "postal_code": "SW1A 1AA",
    "phone": null,
    "rating": 4.2,
    "review_count": 1201,
    "cuisine_type": "Restaurante",
    "business_hours": null,
    "website": "https://www.premierinn.com/gb/en/hotels/england/greater-london/london/london-leicester-square.html?cid=GLBC_LONLEI",
    "latitude": 51.5110378,
    "longitude": -0.1302996,
    "scraped_at": "2025-06-25T14:24:43.403965"
  },
  {
    "name": "The Clermont London, Charing Cross",
    "address": "Strand, London WC2N 5HX, UK",
    "postal_code": "SW1A 1AA",
    "phone": "020 7523 5052",
    "rating": 4.5,
    "review_count": 3191,
    "cuisine_type": "Restaurante",
    "business_hours": {
      "day_0": "Monday: Open 24 hours",
      "day_1": "Tuesday: Open 24 hours",
      "day_2": "Wednesday: Open 24 hours",
      "day_3": "Thursday: Open 24 hours",
      "day_4": "Friday: Open 24 hours",
      "day_5": "Saturday: Open 24 hours",
      "day_6": "Sunday: Open 24 hours"
    },
    "website": "https://www.theclermont.co.uk/charing-cross?utm_source=google&utm_medium=organic&utm_campaign=gmb_website_click",
    "latitude": 51.5084092,
    "longitude": -0.124743,
    "scraped_at": "2025-06-25T14:24:43.925248"
  },
  {
    "name": "Premier Inn London County Hall hotel",
    "address": "County Hall, Belvedere Rd, London SE1 7PB, UK",
    "postal_code": "SW1A 1AA",
    "phone": "0333 321 1246",
    "rating": 4.3,
    "review_count": 3307,
    "cuisine_type": "Restaurante",
    "business_hours": null,
    "website": "https://www.premierinn.com/gb/en/hotels/england/greater-london/london/london-county-hall.html?cid=GLBC_LONCOU",
    "latitude": 51.50249969999999,
    "longitude": -0.1180709,
    "scraped_at": "2025-06-25T14:24:44.459241"
  },
  {
    "name": "Novotel London Waterloo",
    "address": "113 Lambeth Rd, London SE1 7LS, UK",
    "postal_code": "SW1A 1AA",
    "phone": "020 7660 0674",
    "rating": 4.4,
    "review_count": 3156,
    "cuisine_type": "Restaurante",
    "business_hours": null,
    "website": "https://all.accor.com/lien_externe.svlt?goto=fiche_hotel&code_hotel=1785&merchantid=seo-maps-GB-1785&sourceid=aw-cen&utm_medium=seo%20maps&utm_source=google%20Maps&utm_campaign=seo%20maps",
    "latitude": 51.4946539,
    "longitude": -0.1186786,
    "scraped_at": "2025-06-25T14:24:44.978460"
  },
  {
    "name": "Covent Garden Hotel",
    "address": "10 Monmouth St, London WC2H 9HB, UK",
    "postal_code": "SW1A 1AA",
    "phone": "020 7806 1000",
    "rating": 4.6,
    "review_count": 729,
    "cuisine_type": "Restaurante",
    "business_hours": null,
    "website": "https://www.firmdalehotels.com/",
    "latitude": 51.5145658,
    "longitude": -0.1271199,
    "scraped_at": "2025-06-25T14:24:45.431310"
  },
  {
    "name": "One Aldwych",
    "address": "1 Aldwych, London WC2B 4BZ, UK",
    "postal_code": "SW1A 1AA",
    "phone": "020 7300 1000",
    "rating": 4.6,
    "review_count": 1456,
    "cuisine_type": "Restaurante",
    "business_hours": {
      "day_0": "Monday: Open 24 hours",
      "day_1": "Tuesday: Open 24 hours",
      "day_2": "Wednesday: Open 24 hours",
      "day_3": "Thursday: Open 24 hours",
      "day_4": "Friday: Open 24 hours",
      "day_5": "Saturday: Open 24 hours",
      "day_6": "Sunday: Open 24 hours"
    },
    "website": "https://www.onealdwych.com/?utm_source=mybusiness&utm_medium=organic",
    "latitude": 51.5117908,
    "longitude": -0.11934,
    "scraped_at": "2025-06-25T14:24:45.798864"
  },
  {
    "name": "Charlotte Street Hotel",
    "address": "15-17 Charlotte St., London W1T 1RJ, UK",
    "postal_code": "SW1A 1AA",
    "phone": "020 7806 2000",
    "rating": 4.4,
    "review_count": 1281,
    "cuisine_type": "Restaurante",
    "business_hours": null,
    "website": "https://www.firmdalehotels.com/hotels/london/charlotte-street-hotel",
    "latitude": 51.5184005,
    "longitude": -0.1348734,
    "scraped_at": "2025-06-25T14:24:46.214207"
  },
  {
    "name": "The Rembrandt Hotel",
    "address": "11 Thurloe Pl, South Kensington, London SW7 2RS, UK",
    "postal_code": "SW1A 1AA",
    "phone": "020 7589 8100",
    "rating": 4.3,
    "review_count": 2432,
    "cuisine_type": "Restaurante",
    "business_hours": {
      "day_0": "Monday: Open 24 hours",
      "day_1": "Tuesday: Open 24 hours",
      "day_2": "Wednesday: Open 24 hours",
      "day_3": "Thursday: Open 24 hours",
      "day_4": "Friday: Open 24 hours",
      "day_5": "Saturday: Open 24 hours",
      "day_6": "Sunday: Open 24 hours"
    },
    "website": "https://www.sarova-rembrandthotel.com/",
    "latitude": 51.4960608,
    "longitude": -0.1704114,
    "scraped_at": "2025-06-25T14:24:46.626554"
  },
  {
    "name": "Gem Fitzrovia Hotel",
    "address": "20-28 Bolsover St, London W1W 5NB, UK",
    "postal_code": "SW1A 1AA",
    "phone": "020 7467 7000",
    "rating": 4.1,
    "review_count": 1080,
    "cuisine_type": "Restaurante",
    "business_hours": null,
    "website": "https://www.gemhotels.com/hotels-london/fitzrovia-hotel",
    "latitude": 51.5217566,
    "longitude": -0.1425275,
    "scraped_at": "2025-06-25T14:24:46.926208"
  },
  {
    "name": "Holiday Inn London - Regent's Park by IHG",
    "address": "Carburton St, London W1W 5EE, UK",
    "postal_code": "SW1A 1AA",
    "phone": "0371 942 9111",
    "rating": 4.1,
    "review_count": 2749,
    "cuisine_type": "Restaurante",
    "business_hours": null,
    "website": "https://www.ihg.com/holidayinn/hotels/gb/en/london/lonrp/hoteldetail?cm_mmc=GoogleMaps-_-HI-_-GB-_-LONRP",
    "latitude": 51.52251219999999,
    "longitude": -0.1428166,
    "scraped_at": "2025-06-25T14:24:47.352599"
  },
  {
    "name": "Royal Lancaster London",
    "address": "Lancaster Terrace, London W2 2TY, UK",
    "postal_code": "SW1A 1AA",
    "phone": "020 7551 6000",
    "rating": 4.6,
    "review_count": 3825,
    "cuisine_type": "Restaurante",
    "business_hours": null,
    "website": "https://www.royallancaster.com/",
    "latitude": 51.512297,
    "longitude": -0.175197,
    "scraped_at": "2025-06-25T14:24:47.630844"
  },
  {
    "name": "Holiday Inn London - Bloomsbury by IHG",
    "address": "Coram St, London WC1N 1HT, UK",
    "postal_code": "SW1A 1AA",
    "phone": "0371 942 9222",
    "rating": 4.1,
    "review_count": 3424,
    "cuisine_type": "Restaurante",
    "business_hours": null,
    "website": "https://www.ihg.com/holidayinn/hotels/gb/en/london/lonbl/hoteldetail?cm_mmc=GoogleMaps-_-HI-_-GB-_-LONBL",
    "latitude": 51.52397149999999,
    "longitude": -0.1250204,
    "scraped_at": "2025-06-25T14:24:47.981316"
  },
  {
    "name": "Premier Inn London Blackfriars (Fleet Street) hotel",
    "address": "1-2 Dorset Rise, London EC4Y 8EN, UK",
    "postal_code": "SW1A 1AA",
    "phone": null,
    "rating": 4.3,
    "review_count": 2718,
    "cuisine_type": "Restaurante",
    "business_hours": null,
    "website": "https://www.premierinn.com/gb/en/hotels/england/greater-london/london/london-blackfriars-fleet-street.html?cid=GLBC_LONBLA",
    "latitude": 51.512977,
    "longitude": -0.1051152,
    "scraped_at": "2025-06-25T14:24:48.319370"
  },
  {
    "name": "The Memoir Club (formerly Ambassadors Bloomsbury)",
    "address": "12 Upper Woburn Pl, London WC1H 0HX, UK",
    "postal_code": "SW1A 1AA",
    "phone": "020 7693 5400",
    "rating": 3.8,
    "review_count": 1181,
    "cuisine_type": "Restaurante",
    "business_hours": null,
    "website": "https://www.memoirclublondon.com/?utm_source=google&utm_medium=local&utm_campaign=the-memoir-club",
    "latitude": 51.5266435,
    "longitude": -0.1296986,
    "scraped_at": "2025-06-25T14:24:48.695923"
  },
  {
    "name": "Premier Inn London Euston hotel",
    "address": "1 Duke's Rd, London WC1H 9PJ, UK",
    "postal_code": "SW1A 1AA",
    "phone": null,
    "rating": 3.9,
    "review_count": 2539,
    "cuisine_type": "Restaurante",
    "business_hours": null,
    "website": "https://www.premierinn.com/gb/en/hotels/england/greater-london/london/london-euston.html?cid=GLBC_LONEUS",
    "latitude": 51.5276088,
    "longitude": -0.1292053,
    "scraped_at": "2025-06-25T14:24:49.163775"
  },
  {
    "name": "Royal Garden Hotel",
    "address": "2, 24 Kensington High St, London W8 4PT, UK",
    "postal_code": "SW1A 1AA",
    "phone": "020 7937 8000",
    "rating": 4.4,
    "review_count": 2555,
    "cuisine_type": "Restaurante",
    "business_hours": null,
    "website": "https://www.royalgardenhotel.co.uk/?utm_source=gbp&utm_medium=organic&utm_campaign=rgh",
    "latitude": 51.5026936,
    "longitude": -0.1883821,
    "scraped_at": "2025-06-25T14:24:51.643839"
  },
  {
    "name": "Premier Inn London Southwark (Bankside) hotel",
    "address": "34 Bankside, Park St, London SE1 9EF, UK",
    "postal_code": "SW1A 1AA",
    "phone": "020 7089 2580",
    "rating": 4.3,
    "review_count": 566,
    "cuisine_type": "Restaurante",
    "business_hours": null,
    "website": "https://www.premierinn.com/gb/en/hotels/england/greater-london/london/london-southwark-bankside.html?cid=GLBC_SOUANC",
    "latitude": 51.5071143,
    "longitude": -0.092892,
    "scraped_at": "2025-06-25T14:24:51.896421"
  },
  {
    "name": "Premier Inn London Kensington (Earl's Court) hotel",
    "address": "11 Knaresborough Pl, London SW5 0TJ, UK",
    "postal_code": "SW1A 1AA",
    "phone": "0333 321 1268",
    "rating": 4.1,
    "review_count": 1945,
    "cuisine_type": "Restaurante",
    "business_hours": null,
    "website": "https://www.premierinn.com/gb/en/hotels/england/greater-london/london/london-kensington-earls-court.html?cid=GLBC_LONKEN",
    "latitude": 51.4936545,
    "longitude": -0.1909344,
    "scraped_at": "2025-06-25T14:24:52.273733"
  },
  {
    "name": "London Bridge Hotel",
    "address": "8-18 London Bridge St, London SE1 9SG, UK",
    "postal_code": "SW1A 1AA",
    "phone": "020 7855 2200",
    "rating": 4.5,
    "review_count": 1131,
    "cuisine_type": "Restaurante",
    "business_hours": {
      "day_0": "Monday: Open 24 hours",
      "day_1": "Tuesday: Open 24 hours",
      "day_2": "Wednesday: Open 24 hours",
      "day_3": "Thursday: Open 24 hours",
      "day_4": "Friday: Open 24 hours",
      "day_5": "Saturday: Open 24 hours",
      "day_6": "Sunday: Open 24 hours"
    },
    "website": "http://www.londonbridgehotel.com/",
    "latitude": 51.5051976,
    "longitude": -0.0881208,
    "scraped_at": "2025-06-25T14:24:52.580084"
  },
  {
    "name": "Premier Inn London Tower Bridge hotel",
    "address": "159 Tower Bridge Rd, London SE1 3LP, UK",
    "postal_code": "SW1A 1AA",
    "phone": null,
    "rating": 4.1,
    "review_count": 2077,
    "cuisine_type": "Restaurante",
    "business_hours": null,
    "website": "https://www.premierinn.com/gb/en/hotels/england/greater-london/london/london-tower-bridge.html?cid=GLBC_LONTOW",
    "latitude": 51.4993294,
    "longitude": -0.0792754,
    "scraped_at": "2025-06-25T14:24:53.157111"
  },
  {
    "name": "Premier Inn London Kings Cross hotel",
    "address": "26-30 York Wy, London N1 9AA, UK",
    "postal_code": "SW1A 1AA",
    "phone": null,
    "rating": 4.2,
    "review_count": 2651,
    "cuisine_type": "Restaurante",
    "business_hours": null,
    "website": "https://www.premierinn.com/gb/en/hotels/england/greater-london/london/london-kings-cross.html?cid=GLBC_KINPTI",
    "latitude": 51.5319392,
    "longitude": -0.1221961,
    "scraped_at": "2025-06-25T14:24:53.623892"
  },
  {
    "name": "ibis London Earls Court",
    "address": "47 Lillie Rd, London SW6 1UD, UK",
    "postal_code": "SW1A 1AA",
    "phone": "020 7610 0880",
    "rating": 4.1,
    "review_count": 7484,
    "cuisine_type": "Restaurante",
    "business_hours": null,
    "website": "https://all.accor.com/lien_externe.svlt?goto=fiche_hotel&code_hotel=5623&merchantid=seo-maps-GB-5623&sourceid=aw-cen&utm_medium=seo%20maps&utm_source=google%20Maps&utm_campaign=seo%20maps",
    "latitude": 51.48580639999999,
    "longitude": -0.1995566,
    "scraped_at": "2025-06-25T14:24:54.184493"
  },
  {
    "name": "The Wesley Euston",
    "address": "81-103 Euston St., London NW1 2EZ, UK",
    "postal_code": "SW1A 1AA",
    "phone": "020 7380 0001",
    "rating": 3.8,
    "review_count": 1709,
    "cuisine_type": "Restaurante",
    "business_hours": {
      "day_0": "Monday: Open 24 hours",
      "day_1": "Tuesday: Open 24 hours",
      "day_2": "Wednesday: Open 24 hours",
      "day_3": "Thursday: Open 24 hours",
      "day_4": "Friday: Open 24 hours",
      "day_5": "Saturday: Open 24 hours",
      "day_6": "Sunday: Open 24 hours"
    },
    "website": "https://www.thewesley.co.uk/?utm_source=google&utm_medium=local&utm_campaign=gmblisting",
    "latitude": 51.5266402,
    "longitude": -0.135689,
    "scraped_at": "2025-06-25T14:24:54.575386"
  },
  {
    "name": "Premier Inn London Waterloo (Westminster Bridge) hotel",
    "address": "85 York Rd, London SE1 7NJ, UK",
    "postal_code": "SW1A 1AA",
    "phone": null,
    "rating": 4.1,
    "review_count": 2233,
    "cuisine_type": "Restaurante",
    "business_hours": null,
    "website": "https://www.premierinn.com/gb/en/hotels/england/greater-london/london/london-waterloo-westminster-bridge.html?cid=GLBC_LONWAT",
    "latitude": 51.5018864,
    "longitude": -0.1165677,
    "scraped_at": "2025-06-25T14:24:55.061785"
  },
  {
    "name": "Mercure London Bridge",
    "address": "71-79 Southwark St, London SE1 0JA, UK",
    "postal_code": "SW1A 1AA",
    "phone": "020 7902 0800",
    "rating": 4.4,
    "review_count": 2045,
    "cuisine_type": "Restaurante",
    "business_hours": null,
    "website": "https://all.accor.com/lien_externe.svlt?goto=fiche_hotel&code_hotel=2814&merchantid=seo-maps-GB-2814&sourceid=aw-cen&utm_medium=seo%20maps&utm_source=google%20Maps&utm_campaign=seo%20maps",
    "latitude": 51.5053989,
    "longitude": -0.0993121,
    "scraped_at": "2025-06-25T14:24:55.404544"
  },
  {
    "name": "Novotel London Tower Bridge",
    "address": "10 Pepys St, London EC3N 2NR, UK",
    "postal_code": "SW1A 1AA",
    "phone": "020 7660 0675",
    "rating": 4.5,
    "review_count": 2787,
    "cuisine_type": "Restaurante",
    "business_hours": null,
    "website": "https://all.accor.com/lien_externe.svlt?goto=fiche_hotel&code_hotel=3107&merchantid=seo-maps-GB-3107&sourceid=aw-cen&utm_medium=seo%20maps&utm_source=google%20Maps&utm_campaign=seo%20maps",
    "latitude": 51.5107254,
    "longitude": -0.0773324,
    "scraped_at": "2025-06-25T14:24:56.006473"
  },
  {
    "name": "Premier Inn London Kensington (Olympia) hotel",
    "address": "22-32 W Cromwell Rd, London SW5 9QJ, UK",
    "postal_code": "SW1A 1AA",
    "phone": "0333 321 1269",
    "rating": 4,
    "review_count": 957,
    "cuisine_type": "Restaurante",
    "business_hours": null,
    "website": "https://www.premierinn.com/gb/en/hotels/england/greater-london/london/london-kensington-olympia.html?cid=GLBC_LONOLY",
    "latitude": 51.494295,
    "longitude": -0.1972764,
    "scraped_at": "2025-06-25T14:24:56.298462"
  },
  {
    "name": "The Tower Hotel, by Thistle",
    "address": "St Katharine's Way, London E1W 1LD, UK",
    "postal_code": "SW1A 1AA",
    "phone": "020 7523 5063",
    "rating": 4.2,
    "review_count": 10577,
    "cuisine_type": "Restaurante",
    "business_hours": {
      "day_0": "Monday: Open 24 hours",
      "day_1": "Tuesday: Open 24 hours",
      "day_2": "Wednesday: Open 24 hours",
      "day_3": "Thursday: Open 24 hours",
      "day_4": "Friday: Open 24 hours",
      "day_5": "Saturday: Open 24 hours",
      "day_6": "Sunday: Open 24 hours"
    },
    "website": "https://www.towerhotellondon.com/?utm_source=google&utm_medium=organic&utm_campaign=gmb_website_click",
    "latitude": 51.506786,
    "longitude": -0.0739649,
    "scraped_at": "2025-06-25T14:24:56.878353"
  },
  {
    "name": "The Chamberlain Hotel, Tower Bridge",
    "address": "132-135 Minories, London EC3N 1NU, UK",
    "postal_code": "SW1A 1AA",
    "phone": "020 7680 1500",
    "rating": 4.4,
    "review_count": 1416,
    "cuisine_type": "Restaurante",
    "business_hours": null,
    "website": "https://www.thechamberlainhotel.co.uk/?partner=8163&utm_source=googlemybusiness&utm_medium=organic&utm_campaign=yext&utm_content=H008%3Futm_source%3Dgooglemybusiness&utm_medium=organic&utm_campaign=yext&utm_content=H008&y_source=1_MTIyMzcwMzAtNzE1LWxvY2F0aW9uLndlYnNpdGU%3D",
    "latitude": 51.5122297,
    "longitude": -0.0756757,
    "scraped_at": "2025-06-25T14:24:57.462062"
  },
  {
    "name": "Premier Inn London City (Old Street) hotel",
    "address": "Corsham St, London N1 6DR, UK",
    "postal_code": "SW1A 1AA",
    "phone": null,
    "rating": 4.1,
    "review_count": 2207,
    "cuisine_type": "Restaurante",
    "business_hours": null,
    "website": "https://www.premierinn.com/gb/en/hotels/england/greater-london/london/london-city-old-street.html?cid=GLBC_LONOLD",
    "latitude": 51.5274692,
    "longitude": -0.08763309999999999,
    "scraped_at": "2025-06-25T14:24:57.747128"
  },
  {
    "name": "South Place Hotel",
    "address": "3 South Pl, London EC2M 2AF, UK",
    "postal_code": "SW1A 1AA",
    "phone": "020 3503 0000",
    "rating": 4.4,
    "review_count": 1051,
    "cuisine_type": "Restaurante",
    "business_hours": {
      "day_0": "Monday: Open 24 hours",
      "day_1": "Tuesday: Open 24 hours",
      "day_2": "Wednesday: Open 24 hours",
      "day_3": "Thursday: Open 24 hours",
      "day_4": "Friday: Open 24 hours",
      "day_5": "Saturday: Open 24 hours",
      "day_6": "Sunday: Open 24 hours"
    },
    "website": "https://southplacehotel.com/",
    "latitude": 51.519078,
    "longitude": -0.0865857,
    "scraped_at": "2025-06-25T14:24:58.056170"
  },
  {
    "name": "Kings Cross Inn Hotel",
    "address": "9-11 Euston Rd., London NW1 2SA, UK",
    "postal_code": "SW1A 1AA",
    "phone": "020 7833 9510",
    "rating": 3.3,
    "review_count": 1887,
    "cuisine_type": "Restaurante",
    "business_hours": {
      "day_0": "Monday: Open 24 hours",
      "day_1": "Tuesday: Open 24 hours",
      "day_2": "Wednesday: Open 24 hours",
      "day_3": "Thursday: Open 24 hours",
      "day_4": "Friday: Open 24 hours",
      "day_5": "Saturday: Open 24 hours",
      "day_6": "Sunday: Open 24 hours"
    },
    "website": "https://www.kingscrossinnhotel.co.uk/",
    "latitude": 51.5301811,
    "longitude": -0.1228242,
    "scraped_at": "2025-06-25T14:24:58.599197"
  },
  {
    "name": "The Mandeville Hotel",
    "address": "Mandeville Pl, London W1U 2BE, UK",
    "postal_code": "SW1A 1AA",
    "phone": "020 7935 5599",
    "rating": 4.2,
    "review_count": 1036,
    "cuisine_type": "Restaurante",
    "business_hours": null,
    "website": "https://www.mandeville.co.uk/?utm_source=googlemybusiness&utm_medium=organic",
    "latitude": 51.51647850000001,
    "longitude": -0.1509183,
    "scraped_at": "2025-06-25T14:24:58.994366"
  },
  {
    "name": "Rosewood London",
    "address": "252 High Holborn, London WC1V 7EN, UK",
    "postal_code": "SW1A 1AA",
    "phone": "020 7781 8888",
    "rating": 4.7,
    "review_count": 3185,
    "cuisine_type": "Restaurante",
    "business_hours": {
      "day_0": "Monday: Open 24 hours",
      "day_1": "Tuesday: Open 24 hours",
      "day_2": "Wednesday: Open 24 hours",
      "day_3": "Thursday: Open 24 hours",
      "day_4": "Friday: Open 24 hours",
      "day_5": "Saturday: Open 24 hours",
      "day_6": "Sunday: Open 24 hours"
    },
    "website": "https://www.rosewoodhotels.com/en/london",
    "latitude": 51.5175719,
    "longitude": -0.1178382,
    "scraped_at": "2025-06-25T14:24:59.519849"
  },
  {
    "name": "Durrants Hotel",
    "address": "26-32 George St, London W1H 5BJ, UK",
    "postal_code": "SW1A 1AA",
    "phone": "020 7935 8131",
    "rating": 4.3,
    "review_count": 394,
    "cuisine_type": "Restaurante",
    "business_hours": {
      "day_0": "Monday: Open 24 hours",
      "day_1": "Tuesday: Open 24 hours",
      "day_2": "Wednesday: Open 24 hours",
      "day_3": "Thursday: Open 24 hours",
      "day_4": "Friday: Open 24 hours",
      "day_5": "Saturday: Open 24 hours",
      "day_6": "Sunday: Open 24 hours"
    },
    "website": "http://www.durrantshotel.co.uk/",
    "latitude": 51.51800189999999,
    "longitude": -0.1532301,
    "scraped_at": "2025-06-25T14:24:59.790344"
  },
  {
    "name": "Number Sixteen",
    "address": "16 Sumner Pl, South Kensington, London SW7 3EG, UK",
    "postal_code": "SW1A 1AA",
    "phone": "020 7589 5232",
    "rating": 4.5,
    "review_count": 298,
    "cuisine_type": "Restaurante",
    "business_hours": {
      "day_0": "Monday: Open 24 hours",
      "day_1": "Tuesday: Open 24 hours",
      "day_2": "Wednesday: Open 24 hours",
      "day_3": "Thursday: Open 24 hours",
      "day_4": "Friday: Open 24 hours",
      "day_5": "Saturday: Open 24 hours",
      "day_6": "Sunday: Open 24 hours"
    },
    "website": "https://www.firmdalehotels.com/hotels/london/number-sixteen/",
    "latitude": 51.49307719999999,
    "longitude": -0.1755007,
    "scraped_at": "2025-06-25T14:25:02.292656"
  },
  {
    "name": "Althoff St. James's Hotel & Club - Mayfair London",
    "address": "7-8 Park Pl, London SW1A 1LS, UK",
    "postal_code": "SW1A 1AA",
    "phone": "020 7316 1600",
    "rating": 4.3,
    "review_count": 484,
    "cuisine_type": "Restaurante",
    "business_hours": {
      "day_0": "Monday: Open 24 hours",
      "day_1": "Tuesday: Open 24 hours",
      "day_2": "Wednesday: Open 24 hours",
      "day_3": "Thursday: Open 24 hours",
      "day_4": "Friday: Open 24 hours",
      "day_5": "Saturday: Open 24 hours",
      "day_6": "Sunday: Open 24 hours"
    },
    "website": "https://www.stjameshotelandclub.com/en/?utm_source=mybusiness&utm_medium=organic",
    "latitude": 51.5061487,
    "longitude": -0.1402737,
    "scraped_at": "2025-06-25T14:25:02.742937"
  },
  {
    "name": "Park Plaza London Riverbank",
    "address": "18 Albert Embankment, London SE1 7TJ, UK",
    "postal_code": "SW1A 1AA",
    "phone": "0333 400 6122",
    "rating": 4.3,
    "review_count": 6268,
    "cuisine_type": "Restaurante",
    "business_hours": null,
    "website": "https://www.parkplazariverbank.com/?utm_source=thirdparty&utm_medium=visitwebsite&utm_campaign=yextlisting&utm_term=website",
    "latitude": 51.491478,
    "longitude": -0.122177,
    "scraped_at": "2025-06-25T14:25:03.021104"
  },
  {
    "name": "The Mad Hatter Hotel, Southwark",
    "address": "3-7 Stamford St, London SE1 9NY, UK",
    "postal_code": "SW1A 1AA",
    "phone": "020 7401 9222",
    "rating": 4.4,
    "review_count": 1584,
    "cuisine_type": "Restaurante",
    "business_hours": null,
    "website": "https://www.madhatterhotel.co.uk/?utm_source=googlemybusiness&utm_medium=organic&utm_campaign=yext&utm_content=H002&y_source=1_MTIyMzcxMTgtNzE1LWxvY2F0aW9uLndlYnNpdGU%3D",
    "latitude": 51.507022,
    "longitude": -0.104917,
    "scraped_at": "2025-06-25T14:25:03.288929"
  },
  {
    "name": "Sofitel London St James",
    "address": "6 Waterloo Pl, London SW1Y 4AN, UK",
    "postal_code": "SW1A 1AA",
    "phone": "020 7747 2200",
    "rating": 4.7,
    "review_count": 2431,
    "cuisine_type": "Restaurante",
    "business_hours": null,
    "website": "http://sofitel.accor.com/hotels/3144?merchantid=seo-maps-GB-3144&sourceid=aw-cen&utm_source=google+Maps&utm_medium=seo+maps&utm_campaign=seo+maps&utm_term=Sofitel-Launch",
    "latitude": 51.507633,
    "longitude": -0.1323427,
    "scraped_at": "2025-06-25T14:25:03.805354"
  },
  {
    "name": "Blakes Hotel",
    "address": "33 Roland Gardens, South Kensington, London SW7 3PF, UK",
    "postal_code": "SW1A 1AA",
    "phone": "020 7370 6701",
    "rating": 4.2,
    "review_count": 341,
    "cuisine_type": "Restaurante",
    "business_hours": null,
    "website": "https://www.blakeshotels.com/?utm_source=google&utm_medium=organic&utm_campaign=local",
    "latitude": 51.4892704,
    "longitude": -0.1802466,
    "scraped_at": "2025-06-25T14:25:04.078252"
  },
  {
    "name": "Dean Street Townhouse",
    "address": "69-71 Dean St, London W1D 3SE, UK",
    "postal_code": "SW1A 1AA",
    "phone": "020 7434 1775",
    "rating": 4.4,
    "review_count": 1933,
    "cuisine_type": "Restaurante",
    "business_hours": {
      "day_0": "Monday: 7:00 AM – 10:45 PM",
      "day_1": "Tuesday: 7:00 AM – 10:45 PM",
      "day_2": "Wednesday: 7:00 AM – 10:45 PM",
      "day_3": "Thursday: 7:00 AM – 10:45 PM",
      "day_4": "Friday: 8:00 AM – 1:00 PM",
      "day_5": "Saturday: 8:00 AM – 1:00 PM",
      "day_6": "Sunday: 8:00 AM – 11:00 PM"
    },
    "website": "http://www.deanstreettownhouse.com/?utm_source=google&utm_medium=organic&utm_campaign=googlemybusiness",
    "latitude": 51.51350189999999,
    "longitude": -0.132589,
    "scraped_at": "2025-06-25T14:25:04.342794"
  },
  {
    "name": "Karma Sanctum Soho London",
    "address": "20 Warwick St, London W1B 5NF, UK",
    "postal_code": "SW1A 1AA",
    "phone": "020 7292 6100",
    "rating": 4.1,
    "review_count": 751,
    "cuisine_type": "Restaurante",
    "business_hours": null,
    "website": "https://sanctumsoho.com/",
    "latitude": 51.51162350000001,
    "longitude": -0.1383634,
    "scraped_at": "2025-06-25T14:25:04.618694"
  },
  {
    "name": "Park Plaza County Hall London",
    "address": "1 Addington St, London SE1 7RY, UK",
    "postal_code": "SW1A 1AA",
    "phone": "0333 400 6116",
    "rating": 4.3,
    "review_count": 3087,
    "cuisine_type": "Restaurante",
    "business_hours": null,
    "website": "https://www.parkplazacountyhall.com/",
    "latitude": 51.5014,
    "longitude": -0.1163,
    "scraped_at": "2025-06-25T14:25:04.903210"
  },
  {
    "name": "Corus Hotel Hyde Park",
    "address": "1 Lancaster Gate, London W2 3LG, UK",
    "postal_code": "SW1A 1AA",
    "phone": "020 7262 5022",
    "rating": 3.6,
    "review_count": 3344,
    "cuisine_type": "Restaurante",
    "business_hours": {
      "day_0": "Monday: Open 24 hours",
      "day_1": "Tuesday: Open 24 hours",
      "day_2": "Wednesday: Open 24 hours",
      "day_3": "Thursday: Open 24 hours",
      "day_4": "Friday: Open 24 hours",
      "day_5": "Saturday: Open 24 hours",
      "day_6": "Sunday: Open 24 hours"
    },
    "website": "https://corushotels.com/corus-hyde-park/",
    "latitude": 51.5116966,
    "longitude": -0.1774143,
    "scraped_at": "2025-06-25T14:25:05.182691"
  },
  {
    "name": "The Bentley Hotel London",
    "address": "27-33 Harrington Gardens, London SW7 4JX, UK",
    "postal_code": "SW1A 1AA",
    "phone": "020 7244 5555",
    "rating": 4.1,
    "review_count": 579,
    "cuisine_type": "Restaurante",
    "business_hours": null,
    "website": "https://thebentley-hotel.com/",
    "latitude": 51.49288620000001,
    "longitude": -0.1841747,
    "scraped_at": "2025-06-25T14:25:05.798103"
  },
  {
    "name": "Queensway Hotel (Sure Collection by Best Western)",
    "address": "147-149 Sussex Gardens, Tyburnia, London W2 2RY, UK",
    "postal_code": "SW1A 1AA",
    "phone": "0333 003 4283",
    "rating": 3.6,
    "review_count": 413,
    "cuisine_type": "Restaurante",
    "business_hours": null,
    "website": "https://www.bestwestern.co.uk/hotels/queensway-hotel-sure-hotel-collection-by-best-western-84273?utm_source=google_places&utm_medium=organic&utm_campaign=Sure_Hotel_Queensway",
    "latitude": 51.51493740000001,
    "longitude": -0.1725338,
    "scraped_at": "2025-06-25T14:25:06.056183"
  },
  {
    "name": "Thistle London Bloomsbury Park",
    "address": "126 Southampton Row, London WC1B 5AD, UK",
    "postal_code": "SW1A 1AA",
    "phone": "020 7523 5051",
    "rating": 3.6,
    "review_count": 711,
    "cuisine_type": "Restaurante",
    "business_hours": {
      "day_0": "Monday: Open 24 hours",
      "day_1": "Tuesday: Open 24 hours",
      "day_2": "Wednesday: Open 24 hours",
      "day_3": "Thursday: Open 24 hours",
      "day_4": "Friday: Open 24 hours",
      "day_5": "Saturday: Open 24 hours",
      "day_6": "Sunday: Open 24 hours"
    },
    "website": "https://www.thistle.com/bloomsbury-park?utm_source=google&utm_medium=organic&utm_campaign=gmb_website_click",
    "latitude": 51.5208819,
    "longitude": -0.122967,
    "scraped_at": "2025-06-25T14:25:06.567937"
  },
  {
    "name": "Thistle London Hyde Park Kensington Gardens",
    "address": "104 Bayswater Rd, London W2 3HL, UK",
    "postal_code": "SW1A 1AA",
    "phone": "020 7523 5058",
    "rating": 4,
    "review_count": 1464,
    "cuisine_type": "Restaurante",
    "business_hours": {
      "day_0": "Monday: Open 24 hours",
      "day_1": "Tuesday: Open 24 hours",
      "day_2": "Wednesday: Open 24 hours",
      "day_3": "Thursday: Open 24 hours",
      "day_4": "Friday: Open 24 hours",
      "day_5": "Saturday: Open 24 hours",
      "day_6": "Sunday: Open 24 hours"
    },
    "website": "https://www.thistle.com/kensington-gardens?utm_source=google&utm_medium=organic&utm_campaign=gmb_website_click",
    "latitude": 51.5108322,
    "longitude": -0.184024,
    "scraped_at": "2025-06-25T14:25:07.098192"
  },
  {
    "name": "Holmes Hotel London",
    "address": "83 Chiltern St, London W1U 6NF, UK",
    "postal_code": "SW1A 1AA",
    "phone": "0333 400 6138",
    "rating": 4.5,
    "review_count": 951,
    "cuisine_type": "Restaurante",
    "business_hours": null,
    "website": "https://www.holmeshotel.com/",
    "latitude": 51.5210573,
    "longitude": -0.1560787,
    "scraped_at": "2025-06-25T14:25:07.381651"
  },
  {
    "name": "Malmaison London",
    "address": "18-21 Charterhouse Square, Barbican, London EC1M 6AH, UK",
    "postal_code": "SW1A 1AA",
    "phone": "020 3750 9402",
    "rating": 4.2,
    "review_count": 991,
    "cuisine_type": "Restaurante",
    "business_hours": {
      "day_0": "Monday: Open 24 hours",
      "day_1": "Tuesday: Open 24 hours",
      "day_2": "Wednesday: Open 24 hours",
      "day_3": "Thursday: Open 24 hours",
      "day_4": "Friday: Open 24 hours",
      "day_5": "Saturday: Open 24 hours",
      "day_6": "Sunday: Open 24 hours"
    },
    "website": "https://www.malmaison.com/locations/london/?utm_source=google&utm_medium=organic&utm_campaign=london-gmb",
    "latitude": 51.5207998,
    "longitude": -0.100389,
    "scraped_at": "2025-06-25T14:25:07.770965"
  },
  {
    "name": "The Rubens at the Palace",
    "address": "39 Buckingham Palace Rd, London SW1W 0PS, UK",
    "postal_code": "SW1A 1AA",
    "phone": "020 7834 6600",
    "rating": 4.5,
    "review_count": 2109,
    "cuisine_type": "Restaurante",
    "business_hours": {
      "day_0": "Monday: Open 24 hours",
      "day_1": "Tuesday: Open 24 hours",
      "day_2": "Wednesday: Open 24 hours",
      "day_3": "Thursday: Open 24 hours",
      "day_4": "Friday: Open 24 hours",
      "day_5": "Saturday: Open 24 hours",
      "day_6": "Sunday: Open 24 hours"
    },
    "website": "https://www.rubenshotel.com/?utm_source=google&utm_medium=local&utm_campaign=hotel-the-rubens-at-the-palace",
    "latitude": 51.4982653,
    "longitude": -0.1434998,
    "scraped_at": "2025-06-25T14:25:08.043956"
  },
  {
    "name": "The Hari",
    "address": "20 Chesham Pl, London SW1X 8HQ, UK",
    "postal_code": "SW1A 1AA",
    "phone": "020 7858 0100",
    "rating": 4.5,
    "review_count": 1035,
    "cuisine_type": "Restaurante",
    "business_hours": {
      "day_0": "Monday: Open 24 hours",
      "day_1": "Tuesday: Open 24 hours",
      "day_2": "Wednesday: Open 24 hours",
      "day_3": "Thursday: Open 24 hours",
      "day_4": "Friday: Open 24 hours",
      "day_5": "Saturday: Open 24 hours",
      "day_6": "Sunday: Open 24 hours"
    },
    "website": "https://www.thehari.com/",
    "latitude": 51.49733,
    "longitude": -0.1562088,
    "scraped_at": "2025-06-25T14:25:08.537193"
  },
  {
    "name": "Novotel London Bridge",
    "address": "53-61 Southwark Bridge Rd, London SE1 9HH, UK",
    "postal_code": "SW1A 1AA",
    "phone": "020 7089 0400",
    "rating": 4.4,
    "review_count": 3009,
    "cuisine_type": "Restaurante",
    "business_hours": null,
    "website": "https://all.accor.com/lien_externe.svlt?goto=fiche_hotel&code_hotel=3269&merchantid=seo-maps-GB-3269&sourceid=aw-cen&utm_medium=seo%20maps&utm_source=google%20Maps&utm_campaign=seo%20maps",
    "latitude": 51.5055128,
    "longitude": -0.09519240000000001,
    "scraped_at": "2025-06-25T14:25:08.859482"
  },
  {
    "name": "The Wellington Hotel, Waterloo",
    "address": "81-83 Waterloo Rd, London SE1 8UD, UK",
    "postal_code": "SW1A 1AA",
    "phone": "020 7928 6083",
    "rating": 4,
    "review_count": 2617,
    "cuisine_type": "Restaurante",
    "business_hours": null,
    "website": "https://www.wellingtonhotelwaterloo.co.uk/?partner=8163&utm_source=google&utm_medium=organic&utm_campaign=MyBusiness",
    "latitude": 51.5037575,
    "longitude": -0.1113899,
    "scraped_at": "2025-06-25T14:25:09.411831"
  }
]